lat,lon,name,operator,opening_hours,Unnamed: 5,prixDiesel,prixDieselExcellium,prixEssence95,prixEssence98,prixLPG,derniereModification,url
49.2254858,15.8776394,SVA,,,,39.41,,40.68,,24.24,17-06-2026,https://www.mbenzin.cz/
49.6614848,17.1036771,"PapOil, Unčovice","MOL Česká republika, s.r.o.",05:00-22:00,,39.33,,40.91,,24.36,17-06-2026,https://www.mbenzin.cz/
49.5828259,17.2446565,Shell,,Mo-Su 06:00-22:00,,40.69,,42.87,,24.9,17-06-2026,https://www.mbenzin.cz/
49.6807156,17.2253032,BEN-PE,,08:00-20:00,,39.15,,41.54,,24.33,17-06-2026,https://www.mbenzin.cz/
49.7164232,17.0767537,Shell,,,,40.54,,42.91,,24.91,17-06-2026,https://www.mbenzin.cz/
49.6902391,17.0754049,Avia,,Mo-Fr 06:00-20:00; Sa-Su 07:00-20:00,,38.91,,40.11,,24.18,17-06-2026,https://www.mbenzin.cz/
50.1621963,12.2705575,,,24/7,,39.83,,40.81,,24.15,17-06-2026,https://www.mbenzin.cz/
50.1602387,12.2791055,,,08:00-17:00,,38.93,,40.71,,23.99,17-06-2026,https://www.mbenzin.cz/
50.1716226,12.3146707,RoBiN OIL Vojtanov,RoBiN OIL s.r.o.,24/7,,39.05,,41.57,,23.99,17-06-2026,https://www.mbenzin.cz/
48.8538727,16.5984081,Avia,,Mo-Su 06:00-21:00,,38.8,,40.35,,24.2,17-06-2026,https://www.mbenzin.cz/
50.034361,14.4446316,RS Petrol,"RS Petrol, s.r.o.",24/7,,39.99,,41.47,,24.43,17-06-2026,https://www.mbenzin.cz/
49.821625,14.3859574,Warman,"Warman, s.r.o.",Mo-Su 06:00-21:00,,39.15,,40.98,,24.62,17-06-2026,https://www.mbenzin.cz/
49.6675132,17.3047421,"Eurobit, Bohuňovice",EUROBIT - čerpací stanice s.r.o.,24/7,,38.31,,40.41,,24.14,17-06-2026,https://www.mbenzin.cz/
49.7247537,17.2850409,Avia Šternberk,ALBEVA MORAVA s.r.o.,"Mo-Fr 04:30-22:30; Sa,Su 05:30-21:30",,39.38,,41.21,,24.03,17-06-2026,https://www.mbenzin.cz/
49.7439745,13.5812962,"MOL, Rokycany","MOL Česká republika, s.r.o.",24/7,,40.79,,42.65,,24.73,17-06-2026,https://www.mbenzin.cz/
50.1274567,12.3581804,MOL,MOL Česká republika,Mo-Su 05:30-22:00,,40.19,,42.11,,24.44,17-06-2026,https://www.mbenzin.cz/
50.0859028,12.4034173,Schnell,,,,39.69,,40.82,,24.7,17-06-2026,https://www.mbenzin.cz/
50.2273218,12.7450861,"KM-Prona, Chodov u Sokolova","KM - PRONA, a.s.",24/7,,38.43,,40.88,,23.81,17-06-2026,https://www.mbenzin.cz/
50.2329413,12.8677549,"OMV KV, Pobřežní","OMV Česká republika, s.r.o.",24/7,,40.07,,42.96,,24.73,17-06-2026,https://www.mbenzin.cz/
50.2544122,12.4067839,Luby,,,,39.44,,41.85,,24.03,17-06-2026,https://www.mbenzin.cz/
50.176252,12.6781863,OMV,"OMV Česká republika, s.r.o.",24/7,,41.09,,42.92,,24.81,17-06-2026,https://www.mbenzin.cz/
50.0838918,12.3703908,Shell,,24/7,,41.05,,42.46,,24.91,17-06-2026,https://www.mbenzin.cz/
50.0466756,12.3501286,"MOL, Cheb Svatý Kříž","MOL Česká republika, s.r.o.",24/7,,39.94,,42.61,,24.75,17-06-2026,https://www.mbenzin.cz/
50.1225014,12.3684521,Orlen,Orlen Unipetrol RPA,24/7,,39.8,,40.68,,24.25,17-06-2026,https://www.mbenzin.cz/
50.0412422,12.3411659,,,,,39.57,,41.62,,24.57,17-06-2026,https://www.mbenzin.cz/
49.7231328,13.354345,"Benzina Plzeň, Bory","Benzina, s.r.o.",05:00-22:00,,38.89,,41.03,,24.62,17-06-2026,https://www.mbenzin.cz/
49.8522624,13.8676802,"MOL, Záluží - D5 to PRG","MOL Česká republika, s.r.o.",24/7,,39.85,,41.58,,24.42,17-06-2026,https://www.mbenzin.cz/
50.4580367,13.3883901,Orlen,"Orlen Unipetrol RPA s.r.o. - Benzina, odštěpný závod",Mo-Su 05:00-24:00,,38.84,,41.89,,24.3,17-06-2026,https://www.mbenzin.cz/
50.0847771,12.4487169,EuroOil Cheb,"Čepro, a.s.",Mar-Oct 06:00-22:00;Nov-Feb 06:00-21:00,,38.96,,40.59,,24.3,17-06-2026,https://www.mbenzin.cz/
50.0301569,14.3807179,"MOL, Praha 5, K Barrandovu","MOL Česká republika, s.r.o.",24/7,,39.9,,42.36,,24.15,17-06-2026,https://www.mbenzin.cz/
49.4197245,12.7194349,Free1 GAS Lísková,TOP TANK s.r.o.,off,,38.88,,41.66,,24.16,17-06-2026,https://www.mbenzin.cz/
49.691062,17.0503563,,,,,39.63,,41.4,,24.14,17-06-2026,https://www.mbenzin.cz/
50.1301262,14.7230009,EuroOil Nehvizdy,"Čepro, a.s.",24/7,,39.75,,41.71,,23.9,17-06-2026,https://www.mbenzin.cz/
49.6032432,17.2224862,"KM-Prona, Olomouc","KM - PRONA, a.s.",06:00-21:00,,39.18,,40.79,,23.76,17-06-2026,https://www.mbenzin.cz/
49.6028501,17.222102,"EuroOil Olomouc, Pražská","Čepro, a.s.",Mo-Su 06:00-20:00,,39.82,,40.65,,24.27,17-06-2026,https://www.mbenzin.cz/
49.5517913,17.1834732,Benzina - Orlen,PKN Orlen,24/7,,39.16,,41.21,,23.91,17-06-2026,https://www.mbenzin.cz/
49.3059171,17.0312075,MOL,,,,40.61,,42.26,,24.24,17-06-2026,https://www.mbenzin.cz/
49.2601831,16.9917636,"MOL, Vyškov - D1","MOL Česká republika, s.r.o.",24/7,,39.66,,41.95,,24.16,17-06-2026,https://www.mbenzin.cz/
49.1845606,16.7584492,OMV,,24/7,,40.15,,42.98,,24.48,17-06-2026,https://www.mbenzin.cz/
49.1626418,16.6608165,OMV,OMV,24/7,,40.14,,43.28,,24.77,17-06-2026,https://www.mbenzin.cz/
49.1741009,16.6028335,OMV,,"PH,Mo-Su 00:00-24:00",,40.4,,42.68,,24.5,17-06-2026,https://www.mbenzin.cz/
49.6263408,15.4845513,TOONDO s.r.o.,,,,39.72,,40.9,,24.61,17-06-2026,https://www.mbenzin.cz/
49.4470203,17.1147016,OMV,OMV,24/7,,41.1,,42.1,,24.31,17-06-2026,https://www.mbenzin.cz/
50.2817771,14.4963533,"MOL, Libiš","MOL Česká republika, s.r.o.",Mo-Su 05:30-22:00,,40.42,,41.44,,24.49,17-06-2026,https://www.mbenzin.cz/
49.7516732,16.6593465,OMV,OMV,24/7,,40.98,,42.48,,24.41,17-06-2026,https://www.mbenzin.cz/
49.5567809,17.7280122,Orlen,,05:00-22:00,,39.64,,40.7,,24.34,17-06-2026,https://www.mbenzin.cz/
50.0606205,14.5066556,"MOL, Praha 10 - Švehlova","MOL Česká republika, s.r.o.",06:00-22:00,,40.7,,42.08,,24.19,17-06-2026,https://www.mbenzin.cz/
50.0591432,14.4708636,"MOL, Praha 10 - Bohdalec I.","MOL Česká republika, s.r.o.",06:00-22:00,,40.44,,42.13,,24.59,17-06-2026,https://www.mbenzin.cz/
50.0603624,14.4701506,"Shell, Bohdalecká",Shell,24/7,,40.47,,42.17,,24.39,17-06-2026,https://www.mbenzin.cz/
50.0555453,14.4714711,OMV,,,,40.6,,42.6,,24.53,17-06-2026,https://www.mbenzin.cz/
50.0345147,14.4552613,Shell,,,,40.47,,43.24,,24.79,17-06-2026,https://www.mbenzin.cz/
50.1200935,14.5029,Shell,,24/7,,40.98,,42.74,,24.79,17-06-2026,https://www.mbenzin.cz/
50.1408969,14.5054835,,,,,39.91,,40.82,,24.06,17-06-2026,https://www.mbenzin.cz/
50.1020741,14.4986407,Robin Oil,RoBiN OIL s.r.o.,24/7,,39.47,,41.76,,24.34,17-06-2026,https://www.mbenzin.cz/
49.9732299,14.4644572,Shell,,,,40.37,,43.05,,24.41,17-06-2026,https://www.mbenzin.cz/
50.0145137,14.4252255,OMV,OMV Česká republika,24/7,,40.83,,42.91,,24.64,17-06-2026,https://www.mbenzin.cz/
48.9244463,16.5474017,Chemis,,24/7,,39.39,,41.55,,24.62,17-06-2026,https://www.mbenzin.cz/
50.4419639,14.3503306,EuroOil Hněvice,"Čepro, a.s.",Mo-Su 06:00-20:00,,39.15,,41.32,,24.69,17-06-2026,https://www.mbenzin.cz/
50.0360795,14.3865645,Shell,,,,40.52,,42.91,,24.45,17-06-2026,https://www.mbenzin.cz/
49.1572791,16.5045687,EuroOil,Čepro,Mo-Su 06:00-20:00,,39.15,,41.08,,24.49,17-06-2026,https://www.mbenzin.cz/
49.7530383,15.0222729,Orlen,,"Mo-Su,PH 00:00-23:59",,39.22,,40.8,,24.14,17-06-2026,https://www.mbenzin.cz/
49.4116747,15.7211036,"Unicorn, Kozlov, D1, směr Brno",UNIXAN s.r.o.,24/7,,39.59,,41.27,,24.58,17-06-2026,https://www.mbenzin.cz/
49.3778283,15.9459266,Shell Měřín,Shell Czech Republic a.s.,24/7,,40.03,,42.36,,24.69,17-06-2026,https://www.mbenzin.cz/
49.3538012,16.0330152,Shell Velké Meziříčí,Shell Czech Republic a.s.,,,40.5,,42.07,,24.36,17-06-2026,https://www.mbenzin.cz/
48.9589317,17.8832026,OMV,OMV,24/7,,40.41,,43.4,,24.89,17-06-2026,https://www.mbenzin.cz/
50.1126037,14.4790616,OMV,OMV,05:30-22:00,,40.14,,43.02,,24.92,17-06-2026,https://www.mbenzin.cz/
50.061157,14.427715,OMV,OMV,24/7,,40.74,,42.76,,24.34,17-06-2026,https://www.mbenzin.cz/
50.1116067,14.5761464,Makro,,,,38.9,,41.72,,24.05,17-06-2026,https://www.mbenzin.cz/
50.1497086,14.587486,Silmet Praha-Vinoř,SILMET Příbram a.s.,"Mo-Fr 06:00-21:00; Sa,Su 07:00-19:00",,39.19,,41.02,,24.46,17-06-2026,https://www.mbenzin.cz/
50.6853088,13.8857797,Pasoil,,,,38.99,,40.79,,24.68,17-06-2026,https://www.mbenzin.cz/
49.5380562,17.7442917,Orlen,,24/7,,39.81,,41.56,,24.05,17-06-2026,https://www.mbenzin.cz/
49.4371025,12.9118089,Orlen,"Orlen Unipetrol RPA s.r.o. - Benzina, odštěpný závod",Mo-Su 05:00-23:00,,39.29,,40.96,,24.43,17-06-2026,https://www.mbenzin.cz/
49.1545954,16.5999086,Tesco Vídeňská,Tesco Stores ČR a.s.,06:00-24:00,,39.4,,40.56,,23.96,17-06-2026,https://www.mbenzin.cz/
49.0851947,16.1941599,,,,,39.65,,40.57,,24.27,17-06-2026,https://www.mbenzin.cz/
49.4358508,12.9440357,ONE 1,,,,39.91,,40.56,,24.67,17-06-2026,https://www.mbenzin.cz/
49.3920865,13.0291492,Orlen Kdyně,,05:00-23:00,,39.04,,41.71,,24.48,17-06-2026,https://www.mbenzin.cz/
49.3926974,13.0245791,Orlen,,24/7,,39.05,,41.8,,23.92,17-06-2026,https://www.mbenzin.cz/
49.565416,15.9196467,OMV,OMV Česká republika,Mo-Su 05:00-23:00,,40.3,,42.96,,24.53,17-06-2026,https://www.mbenzin.cz/
49.5881866,15.9341376,G.A.S. Petroleum,G.A.S. Petroleum,24/7,,39.01,,40.57,,24.66,17-06-2026,https://www.mbenzin.cz/
49.5487517,15.9561888,,,"Mo-Su,PH 05:00-22:00",,39.56,,41.54,,24.2,17-06-2026,https://www.mbenzin.cz/
49.5538945,15.9465714,"Benzina, Žďár nad Sázavou","Unipetrol RPA, s.r.o. – Benzina",24/7,,39.26,,41.71,,24.15,17-06-2026,https://www.mbenzin.cz/
49.4554735,12.8675781,,,,,39.37,,40.85,,24.36,17-06-2026,https://www.mbenzin.cz/
48.7464584,16.9261374,A+S,Zaris,"Mo-Fr 06:00-20:00; Sa,Su,PH 07:00-19:00",,39.63,,41.85,,24.5,17-06-2026,https://www.mbenzin.cz/
49.1843344,16.7568439,LPG,,,,39.72,,41.47,,24.16,17-06-2026,https://www.mbenzin.cz/
49.6130349,16.0377652,,,,,39.99,,41.48,,24.2,17-06-2026,https://www.mbenzin.cz/
49.5586369,16.0744974,Benzina,,,,39.73,,41.42,,24.5,17-06-2026,https://www.mbenzin.cz/
49.7638532,17.1114023,OMV,OMV Česká republika,Mo-Su 06:00-21:00,,40.94,,42.35,,24.64,17-06-2026,https://www.mbenzin.cz/
49.7779702,16.907552,"MOL, Mohelnice","MOL Česká republika, s.r.o.",24/7,,40.08,,42.22,,24.7,17-06-2026,https://www.mbenzin.cz/
51.0242725,14.4561897,Velta Free Shop,VELTA Free Shop s.r.o.,08:00-20:00,,39.09,,41.31,,24.16,17-06-2026,https://www.mbenzin.cz/
51.0251639,14.4530559,MOL Rožany,"MOL Česká republika, s.r.o.",07:00-20:00,,40.44,,41.89,,24.48,17-06-2026,https://www.mbenzin.cz/
50.0892736,14.5497278,,,,,39.28,,40.66,,24.05,17-06-2026,https://www.mbenzin.cz/
49.6282016,15.9269488,CS Gorivo,,"Mo-Su,PH 06:00-22:00",,39.28,,40.68,,24.39,17-06-2026,https://www.mbenzin.cz/
49.553167,17.2292176,OMV,OMV Česká republika,24/7,,40.44,,42.2,,24.81,17-06-2026,https://www.mbenzin.cz/
50.0874738,14.5364245,"MOL, Praha 9 - Průmyslová","MOL Česká republika, s.r.o.",24/7,,39.86,,41.93,,24.84,17-06-2026,https://www.mbenzin.cz/
50.0772866,14.5387621,OMV,"OMV Česká republika, s.r.o.",24/7,,41.01,,42.74,,24.87,17-06-2026,https://www.mbenzin.cz/
49.5844056,17.2691647,Mol,MOL,24/7,,40.72,,42.1,,24.68,17-06-2026,https://www.mbenzin.cz/
50.9825058,14.2977486,Pasoil,,,,39.03,,41.61,,24.17,17-06-2026,https://www.mbenzin.cz/
50.0757336,14.5481499,"MOL, Praha 10 - Štěrboholy (Europark)","MOL Česká republika, s.r.o.",24/7,,40.37,,41.84,,24.41,17-06-2026,https://www.mbenzin.cz/
50.0587989,14.4833043,Shell,Shell,24/7,,40.75,,42.64,,25.09,17-06-2026,https://www.mbenzin.cz/
48.7498295,16.893398,BORS,BORS Servis,,,38.94,,41.8,,24.6,17-06-2026,https://www.mbenzin.cz/
48.844416,14.9319343,Tank&Café,,24/7,,39.21,,41.3,,24.66,17-06-2026,https://www.mbenzin.cz/
49.3447283,12.8509461,Free1 GAS Folmava,TOP TANK s.r.o.,24/7,,39.58,,40.71,,24.44,17-06-2026,https://www.mbenzin.cz/
49.3451869,12.8519788,"MOL, Folmava II. to CZ","MOL Česká republika, s.r.o.",06:00-22:00,,40.69,,41.69,,24.23,17-06-2026,https://www.mbenzin.cz/
49.3412051,12.8511426,RoBiN OIL Folmava,RoBiN OIL s.r.o.,24/7,,39.74,,41.07,,24.08,17-06-2026,https://www.mbenzin.cz/
49.3494564,12.8528719,"MOL, Folmava I. to GER","MOL Česká republika, s.r.o.",24/7,,40.21,,42.73,,24.45,17-06-2026,https://www.mbenzin.cz/
49.3493471,12.8546126,Orlen,,05:00-23:00,,38.91,,40.57,,24.63,17-06-2026,https://www.mbenzin.cz/
50.1493268,14.1821472,EuroOil Buštěhrad,"Čepro, a.s.",Mo-Su 05:30-20:00,,39.81,,40.57,,24.46,17-06-2026,https://www.mbenzin.cz/
50.4822986,16.0695375,Čerpací stanice OLVAN,Olvan Náchod,,,39.87,,40.76,,23.98,17-06-2026,https://www.mbenzin.cz/
50.0885564,14.4428141,Florenc,,Mo-Su 00:00-00:00,,39.57,,40.7,,24.11,17-06-2026,https://www.mbenzin.cz/
50.2304151,12.8402682,MOL,,,,40.1,,42.4,,24.32,17-06-2026,https://www.mbenzin.cz/
50.23126,12.85479,OMV,OMV,24/7,,40.79,,42.41,,24.77,17-06-2026,https://www.mbenzin.cz/
50.2805379,12.9384882,"MOL, Ostrov n. Ohří - Nejda","MOL Česká republika, s.r.o.",05:00-21:00,,40.06,,42.11,,24.72,17-06-2026,https://www.mbenzin.cz/
50.2442289,12.8990514,Orlen,"Orlen Unipetrol RPA s.r.o. - Benzina, odštěpný závod",Mo-Su 05:00-23:00,,39.05,,40.67,,24.35,17-06-2026,https://www.mbenzin.cz/
50.24467,12.8332763,Medos Agro,,,,39.69,,41.1,,24.19,17-06-2026,https://www.mbenzin.cz/
50.8523016,14.8596877,MOL Hrádek nad Nisou,"MOL Česká republika, s.r.o.",06:00-22:00,,39.69,,42.22,,24.56,17-06-2026,https://www.mbenzin.cz/
49.5850323,17.0896248,,,,,39.91,,41.32,,24.41,17-06-2026,https://www.mbenzin.cz/
49.5578972,17.7461805,OMV,OMV,24/7,,40.99,,42.76,,24.56,17-06-2026,https://www.mbenzin.cz/
49.4548914,17.1116929,Orlen,"Orlen Unipetrol RPA s.r.o. - Benzina, odštěpný závod",Mo-Su 05:00-21:00,,39.02,,40.6,,24.3,17-06-2026,https://www.mbenzin.cz/
49.469811,17.1184261,Shell,,,,40.04,,42.89,,24.6,17-06-2026,https://www.mbenzin.cz/
50.0861367,12.4593821,ONO,Tank ONO s.r.o.,24/7,,36.4,,39.61,,23.04,17-06-2026,https://www.mbenzin.cz/
50.1228185,12.5298421,MOL Kynšperk n. Ohří,"MOL Česká republika, s.r.o.",,,39.6,,41.87,,24.35,17-06-2026,https://www.mbenzin.cz/
50.1695226,12.648175,RoBiN OIL Sokolov,RoBiN OIL s.r.o.,24/7,,39.0,,41.24,,24.64,17-06-2026,https://www.mbenzin.cz/
50.058821,14.4894154,Orlen,,24/7,,39.42,,40.67,,24.28,17-06-2026,https://www.mbenzin.cz/
49.9521704,15.1584647,,,,,39.23,,41.82,,24.11,17-06-2026,https://www.mbenzin.cz/
51.0317778,14.4511681,MWD,MWD,,,39.15,,41.72,,23.9,17-06-2026,https://www.mbenzin.cz/
50.076511,14.5796606,"MOL, Štěrboholská spojka, z centra","MOL Česká republika, s.r.o.",24/7,,40.46,,41.92,,24.75,17-06-2026,https://www.mbenzin.cz/
50.5235286,13.2372672,Orlen,"Orlen Unipetrol RPA s.r.o. - Benzina, odštěpný závod",24/7,,39.83,,41.08,,24.29,17-06-2026,https://www.mbenzin.cz/
50.9680763,14.5638241,Orlen,"Orlen Unipetrol RPA s.r.o. - Benzina, odštěpný závod",Mo-Su 05:00-22:00,,39.07,,41.78,,24.51,17-06-2026,https://www.mbenzin.cz/
50.9492706,14.5813195,Tank ONO Rumburk,Tank ONO s.r.o.,24/7,,37.09,,38.77,,23.55,17-06-2026,https://www.mbenzin.cz/
49.165815,16.631278,"Benzina - Brno, Hněvkovského","Unipetrol RPA, s.r.o. – Benzina",05:00-22:00,,38.98,,41.78,,24.44,17-06-2026,https://www.mbenzin.cz/
50.0514397,14.5671777,"Tank Ono - ČS Praha, Dolní Měcholupy",Tank ONO s.r.o.,24/7,,36.41,,38.32,,23.51,17-06-2026,https://www.mbenzin.cz/
50.205042,12.209046,Markop FL,,,,38.95,,41.59,,24.67,17-06-2026,https://www.mbenzin.cz/
50.1650121,12.3579546,Skaldo,SKALDO a.s.,Mo-Fr 06:00-20:00,,38.91,,41.07,,24.28,17-06-2026,https://www.mbenzin.cz/
50.4461285,13.3292719,,JP servis-OIL s.r.o.,,,39.03,,40.66,,24.42,17-06-2026,https://www.mbenzin.cz/
49.8108396,12.4671506,Free1 GAS Pavlův Studenec - Bärnau,TOP TANK s.r.o.,off,,39.09,,40.84,,24.14,17-06-2026,https://www.mbenzin.cz/
50.1216639,15.0826464,OMV,OMV,24/7,,41.18,,42.05,,24.67,17-06-2026,https://www.mbenzin.cz/
50.1322988,14.8643587,MOL,,24/7,,40.07,,42.47,,24.84,17-06-2026,https://www.mbenzin.cz/
50.1650321,14.1086401,Koloc Oil Kladno,KOLOC oil,,,39.94,,40.55,,24.7,17-06-2026,https://www.mbenzin.cz/
50.1030143,14.5872726,Globus,"Globus ČR, v.o.s.",06:30-21:00,,39.29,,40.94,,24.38,17-06-2026,https://www.mbenzin.cz/
50.0799259,14.6290651,"MOL, Praha 9 - Českobrodská","MOL Česká republika, s.r.o.",06:00-22:00,,40.36,,41.54,,24.4,17-06-2026,https://www.mbenzin.cz/
50.9166645,14.6229161,Noprosu,Noprosu,24/7,,39.38,,41.32,,24.52,17-06-2026,https://www.mbenzin.cz/
49.6009502,17.299858,,,,,39.91,,41.1,,24.18,17-06-2026,https://www.mbenzin.cz/
48.7805193,16.9031426,Tesco,Tesco Stores ČR a.s.,24/7,,38.94,,41.38,,23.97,17-06-2026,https://www.mbenzin.cz/
48.8951746,16.8191957,"MOL, Velké Pavlovice","MOL Česká republika, s.r.o.",06:00-21:00,,40.09,,41.6,,24.78,17-06-2026,https://www.mbenzin.cz/
49.7827466,13.3848023,"PapOil, Plzeň - Plaská","MOL Česká republika, s.r.o.",,,39.13,,41.33,,24.23,17-06-2026,https://www.mbenzin.cz/
49.781151,13.3705463,MOL,MOL Česká republika,Mo-Su 06:00-22:00,,39.63,,42.74,,24.22,17-06-2026,https://www.mbenzin.cz/
49.772951,13.3662611,"MOL, Plzeň Gerská","MOL Česká republika, s.r.o.",24/7,,40.7,,42.48,,24.27,17-06-2026,https://www.mbenzin.cz/
49.7577928,13.3727813,Shell,,24/7,,41.04,,42.44,,24.38,17-06-2026,https://www.mbenzin.cz/
49.7751287,13.3604944,"ONO - Plzeň, Studentská",Tank ONO s.r.o.,24/7,,36.31,,38.56,,23.56,17-06-2026,https://www.mbenzin.cz/
48.8812147,16.0612733,,,,,39.98,,40.78,,24.67,17-06-2026,https://www.mbenzin.cz/
49.9926538,14.8440362,Orlen,,05:00-22:00,,39.7,,41.49,,24.28,17-06-2026,https://www.mbenzin.cz/
49.7464844,13.3905012,"OMV U Prazdroje, Plzeň","OMV Česká republika, s.r.o.",24/7,,40.56,,42.47,,24.56,17-06-2026,https://www.mbenzin.cz/
49.9567846,14.0625009,OMV,"OMV Česká republika, s.r.o.",24/7,,40.81,,42.71,,24.59,17-06-2026,https://www.mbenzin.cz/
49.9559701,14.0629998,"OMV sjezd z D5, Beroun","OMV Česká republika, s.r.o.",24/7,,40.75,,43.18,,24.98,17-06-2026,https://www.mbenzin.cz/
50.409392,14.2392435,Shell,,,,41.07,,42.42,,24.58,17-06-2026,https://www.mbenzin.cz/
50.4087032,14.2361805,"Eurobit, Roudnice nad Labem",EUROBIT - čerpací stanice s.r.o.,24/7,,39.49,,40.54,,23.64,17-06-2026,https://www.mbenzin.cz/
49.4095327,14.6864517,"KM-Prona, Tábor","KM - PRONA, a.s.",06:00-22:00,,39.1,,40.86,,24.36,17-06-2026,https://www.mbenzin.cz/
49.3248112,13.6873165,,,Mo-Su 05:00-22:00,,39.52,,40.82,,24.36,17-06-2026,https://www.mbenzin.cz/
49.5565734,16.0674462,Shell,,,,40.72,,42.93,,24.33,17-06-2026,https://www.mbenzin.cz/
50.0729427,12.361411,Orlen,"Orlen Unipetrol RPA s.r.o. - Benzina, odštěpný závod",Mo-Su 05:00-22:00,,39.64,,40.84,,24.31,17-06-2026,https://www.mbenzin.cz/
50.341821,14.8733741,"MOL, Strašnov - R10, směr Mladá Boleslav","MOL Česká republika, s.r.o.",24/7,,40.63,,42.08,,24.44,17-06-2026,https://www.mbenzin.cz/
50.0592839,14.4851496,Orlen,,24/7,,39.72,,40.85,,24.16,17-06-2026,https://www.mbenzin.cz/
49.2785607,16.2272706,,,,,39.02,,40.78,,24.05,17-06-2026,https://www.mbenzin.cz/
50.343957,14.8716492,"MOL, Brodce - R10, směr Praha","MOL Česká republika, s.r.o.",24/7,,40.48,,42.12,,24.79,17-06-2026,https://www.mbenzin.cz/
49.5270545,14.8043299,Okta,OKTANnew cz,Mo-Fr 06:00-20:00; Sa 07:00-20:00; Su 08:00-20:00,,38.87,,41.89,,24.28,17-06-2026,https://www.mbenzin.cz/
49.6088979,14.9084901,,,,,38.92,,40.51,,24.27,17-06-2026,https://www.mbenzin.cz/
49.573116,14.659243,Milicin,,,,39.86,,40.87,,24.66,17-06-2026,https://www.mbenzin.cz/
48.7557184,16.8514247,A+S,Zaris,"Mo-Fr 06:00-20:00; Sa,Su 07:00-20:00",,39.13,,41.1,,24.02,17-06-2026,https://www.mbenzin.cz/
50.0806804,14.5383892,Shell,Shell,,,41.09,,42.79,,24.68,17-06-2026,https://www.mbenzin.cz/
50.103582,14.5169042,OMV,OMV,Mo-Su 06:00-22:00,,40.17,,42.82,,24.41,17-06-2026,https://www.mbenzin.cz/
50.9136838,14.5665695,Orlen,"Orlen Unipetrol RPA s.r.o. - Benzina, odštěpný závod",Mo-Su 06:00-22:00,,39.95,,40.67,,23.94,17-06-2026,https://www.mbenzin.cz/
49.0668332,13.7819616,Orlen,"Orlen Unipetrol RPA s.r.o. - Benzina, odštěpný závod",Mo-Su 06:00-22:00,,38.96,,41.71,,23.99,17-06-2026,https://www.mbenzin.cz/
49.2571737,13.913754,OMV,OMV Česká republika,24/7,,40.48,,42.8,,24.44,17-06-2026,https://www.mbenzin.cz/
50.1348207,14.4521157,"MOL, Praha 8 - Kobylisy","MOL Česká republika, s.r.o.",24/7,,39.92,,42.34,,24.7,17-06-2026,https://www.mbenzin.cz/
49.7463829,16.1541692,G.A.S. Petroleum,G.A.S. Petroleum Group,Mo-Su 05:00-22:00,,38.84,,41.46,,24.48,17-06-2026,https://www.mbenzin.cz/
49.8026011,16.1715239,"Zaris, Budislav",Zaris s.r.o.,"Mo-Fr 07:00-18:00; Sa,Su 08:00-18:00",,39.19,,41.67,,24.51,17-06-2026,https://www.mbenzin.cz/
48.9501645,14.9214698,,"Čepro, a.s.",Mo-Su 06:00-21:00,,39.15,,40.55,,24.45,17-06-2026,https://www.mbenzin.cz/
50.9433598,14.5798056,Velta Free Shop,VELTA Free Shop s.r.o.,"Mo-Fr 07:00-19:00; Sa,Su 08:00-20:00",,39.17,,41.38,,24.36,17-06-2026,https://www.mbenzin.cz/
49.3442564,16.4225216,ČSAD Tišnov,,,,38.87,,41.29,,24.48,17-06-2026,https://www.mbenzin.cz/
49.562755,16.5726325,Shell,,,,40.37,,42.85,,25.06,17-06-2026,https://www.mbenzin.cz/
50.8013757,14.4326968,Orlen,"Orlen Unipetrol RPA s.r.o. - Benzina, odštěpný závod",Mo-Su 05:00-22:00,,39.86,,40.62,,24.52,17-06-2026,https://www.mbenzin.cz/
50.0832378,14.4780085,"MOL, Praha 3 - Žižkov U Nákladového nádraží","MOL Česká republika, s.r.o.",05:00-22:00,,40.07,,41.87,,24.15,17-06-2026,https://www.mbenzin.cz/
50.1510981,14.5111334,Globus,"Globus ČR, v.o.s.",24/7,,38.93,,41.27,,24.47,17-06-2026,https://www.mbenzin.cz/
49.3975735,15.6086328,Tesco Jihlava,Tesco Stores ČR a.s.,06:00-22:00,,39.89,,41.77,,23.92,17-06-2026,https://www.mbenzin.cz/
50.7338159,15.1578329,Shell,"Shell Czech Republic, a.s.",24/7,,40.43,,42.36,,24.43,17-06-2026,https://www.mbenzin.cz/
49.3977618,15.60539,EuroOil Jihlava,"Čepro, a.s.",Mo-Su 06:00-21:00,,39.68,,40.69,,24.2,17-06-2026,https://www.mbenzin.cz/
49.3972732,15.6057024,Shell,,,,40.04,,42.98,,25.07,17-06-2026,https://www.mbenzin.cz/
49.3310436,15.5777697,Orlen,"Orlen Unipetrol RPA s.r.o. - Benzina, odštěpný závod",Mo-Su 05:00-21:00,,39.73,,41.58,,24.43,17-06-2026,https://www.mbenzin.cz/
49.4075008,15.5817156,Prim,PETRA s.r.o.,06:00-22:00,,39.16,,40.69,,24.27,17-06-2026,https://www.mbenzin.cz/
50.1590053,15.446442,Benzina - Chlumec Nad Cidlinou,"Unipetrol RPA, s.r.o. – Benzina",24/7,,39.41,,40.86,,24.22,17-06-2026,https://www.mbenzin.cz/
50.2156096,12.1708913,F1 Gas,TOP TANK s.r.o.,24/7,,38.8,,41.58,,24.52,17-06-2026,https://www.mbenzin.cz/
49.4030736,15.5749758,ICOM,,Mo-Fr 05:00-21:00,,39.86,,40.88,,24.08,17-06-2026,https://www.mbenzin.cz/
50.0877251,14.4913071,MOL,"MOL Česká republika, s.r.o.","Mo-Su,PH 06:00-22:00",,40.1,,42.49,,24.73,17-06-2026,https://www.mbenzin.cz/
50.5711626,14.6446556,Benzina - Doksy,Orlen Benzina,24/7,,38.98,,41.35,,24.02,17-06-2026,https://www.mbenzin.cz/
49.3952101,15.5683789,Tank Ono - ČS Jihlava,Tank ONO s.r.o.,24/7,,36.43,,39.52,,23.18,17-06-2026,https://www.mbenzin.cz/
50.0339542,14.5957167,"EuroOil, Praha, Uhříněves","Čepro, a.s.",05:00-22:00,,39.67,,41.14,,24.09,17-06-2026,https://www.mbenzin.cz/
49.5456932,13.0463987,"MOL, Staňkov","MOL Česká republika, s.r.o.",24/7,,40.31,,42.02,,24.86,17-06-2026,https://www.mbenzin.cz/
49.5283628,12.948532,Shell,Shell Czech Republic a.s.,24/7,,41.02,,42.16,,24.66,17-06-2026,https://www.mbenzin.cz/
51.005039,14.4533485,"MOL, Šluknov","MOL Česká republika, s.r.o.",05:00-22:00,,39.83,,41.58,,24.26,17-06-2026,https://www.mbenzin.cz/
50.8611074,14.4789048,Vendys & V Chřibská,Vendys Petrol,,,39.3,,41.27,,23.95,17-06-2026,https://www.mbenzin.cz/
49.3456357,16.0397548,"MOL, Velké Meziříčí - Karlov","MOL Česká republika, s.r.o.","Mo-Fr 05:00-22:00, Sa-Su 06:00-22:00",,40.16,,42.35,,24.49,17-06-2026,https://www.mbenzin.cz/
50.9909868,14.3331858,tixexpress,,,,39.96,,41.43,,24.09,17-06-2026,https://www.mbenzin.cz/
50.5893892,14.3489564,Benzina,,,,39.22,,41.0,,24.6,17-06-2026,https://www.mbenzin.cz/
49.7471804,13.4192611,Avia,,,,38.65,,40.83,,23.8,17-06-2026,https://www.mbenzin.cz/
50.0829913,14.4717297,OMV,,24/7,,40.98,,42.16,,24.86,17-06-2026,https://www.mbenzin.cz/
49.4921891,17.1306248,Eurobit,Eurobit,,,38.3,,41.19,,23.61,17-06-2026,https://www.mbenzin.cz/
49.7223828,17.2856589,Orlen,"Orlen Unipetrol RPA s.r.o. - Benzina, odštěpný závod",Mo-Su 05:00-22:00,,39.1,,41.51,,24.29,17-06-2026,https://www.mbenzin.cz/
49.6873608,18.3091089,Shell,Shell,,,40.7,,42.15,,25.0,17-06-2026,https://www.mbenzin.cz/
49.4658573,18.162168,"Orlen - Rožnov pod Radhoštěm, Horní Paseky",Orlen,24/7,,39.52,,41.22,,24.59,17-06-2026,https://www.mbenzin.cz/
50.9183085,14.607823,Eurobit Varnsdorf,,05:00-22:00,,38.49,,40.28,,24.13,17-06-2026,https://www.mbenzin.cz/
49.0558255,16.7349797,Adosa Moutnice,ADOSA a.s.,05:00-22:00,,39.37,,40.73,,24.25,17-06-2026,https://www.mbenzin.cz/
49.0955346,16.7160138,Bentel,,Mo-Su 00:00-24:00,,39.85,,41.3,,24.67,17-06-2026,https://www.mbenzin.cz/
49.1617639,16.6373883,Makro,MAKRO Cash&Carry ČR s.r.o.,08:00-22:00,,39.16,,41.6,,24.54,17-06-2026,https://www.mbenzin.cz/
50.0703616,14.4869228,Prim Praha 10,PETRA s.r.o.,06:00-22:00,,39.2,,41.07,,24.31,17-06-2026,https://www.mbenzin.cz/
50.0929802,14.5270521,,,24/7,,39.04,,40.6,,24.0,17-06-2026,https://www.mbenzin.cz/
50.2394133,15.7022852,BeMi oil,,,,39.62,,41.41,,24.34,17-06-2026,https://www.mbenzin.cz/
50.2407359,15.6248404,,,,,39.59,,41.65,,24.69,17-06-2026,https://www.mbenzin.cz/
50.0271986,15.762289,Shell,,,,40.96,,42.09,,24.81,17-06-2026,https://www.mbenzin.cz/
50.5503567,15.9070802,ONO - Trutnov,Tank ONO s.r.o.,24/7,,36.84,,39.38,,23.42,17-06-2026,https://www.mbenzin.cz/
50.3765557,15.5390222,Shell,Shell,Mo-Su 06:00-22:00,,41.09,,43.36,,25.06,17-06-2026,https://www.mbenzin.cz/
50.3620036,15.6247667,Benzina - Hořice V Podkrkonoší,"Unipetrol RPA, s.r.o. – Benzina",24/7,,36.51,,38.54,,23.25,17-06-2026,https://www.mbenzin.cz/
50.3278468,15.6363853,Tank Ono,Tank Ono,24/7,,37.48,,38.55,,22.97,17-06-2026,https://www.mbenzin.cz/
49.3174688,14.1323917,"VS Petrol, Písek",VS PETROL s.r.o.,05:30-21:30,,39.75,,41.42,,24.41,17-06-2026,https://www.mbenzin.cz/
49.3436429,14.0475227,RoBiN OIL Drhovle,RoBiN OIL s.r.o.,24/7,,39.02,,41.18,,24.31,17-06-2026,https://www.mbenzin.cz/
49.861319,14.7909623,OMV,OMV,24/7,,40.91,,42.06,,25.06,17-06-2026,https://www.mbenzin.cz/
49.7104617,17.0743068,Avia Litovel I,,05:00-20:00,,38.62,,40.33,,24.06,17-06-2026,https://www.mbenzin.cz/
50.4236665,15.7298132,Kont,,,,39.7,,40.96,,24.56,17-06-2026,https://www.mbenzin.cz/
49.301815,14.138181,"MOL, Písek - Hradišťská","MOL Česká republika, s.r.o.",05:30-22:00,,40.79,,41.54,,24.83,17-06-2026,https://www.mbenzin.cz/
49.0551866,14.0735524,"KM-Prona, Vitějovice","KM - PRONA, a.s.",05:00-22:00,,38.41,,40.67,,24.32,17-06-2026,https://www.mbenzin.cz/
49.2189948,16.5754426,Orlen,,,,39.69,,41.42,,23.99,17-06-2026,https://www.mbenzin.cz/
49.9421803,16.1658942,Shell,,,,40.59,,42.1,,24.51,17-06-2026,https://www.mbenzin.cz/
49.9429407,16.1643554,Orlen express,"Orlen Unipetrol RPA s.r.o. - Benzina, odštěpný závod",24/7,,39.58,,40.51,,24.02,17-06-2026,https://www.mbenzin.cz/
50.1306871,15.9146697,"KM-Prona, Býšť","KM - PRONA, a.s.",24/7,,38.72,,41.35,,24.1,17-06-2026,https://www.mbenzin.cz/
50.1840924,15.8557572,"Eurobit, Hradec Králové, Holická",EUROBIT - čerpací stanice s.r.o.,05:00-22:00,,38.48,,41.13,,23.64,17-06-2026,https://www.mbenzin.cz/
50.0854339,14.5779777,Medos,,24/7,,39.51,,41.42,,24.34,17-06-2026,https://www.mbenzin.cz/
50.2891046,14.4952175,Prim Obříství,PETRA s.r.o.,06:00-22:00,,39.63,,40.55,,24.21,17-06-2026,https://www.mbenzin.cz/
49.1851845,16.4058079,,,,,39.18,,40.73,,23.96,17-06-2026,https://www.mbenzin.cz/
49.1848655,16.3681847,,,,,39.21,,41.19,,24.45,17-06-2026,https://www.mbenzin.cz/
50.2168104,15.832235,Shell,,24/7,,40.61,,42.23,,24.75,17-06-2026,https://www.mbenzin.cz/
50.2177139,15.8337232,OMV,OMV Česká republika,24/7,,40.2,,42.19,,24.48,17-06-2026,https://www.mbenzin.cz/
50.2031255,15.840271,Orlen,,05:00-22:00,,39.67,,41.77,,24.27,17-06-2026,https://www.mbenzin.cz/
50.3981611,16.1060376,Tank Ono - ČS Vysokov u Náchoda,Tank ONO s.r.o.,24/7,,37.02,,38.7,,22.9,17-06-2026,https://www.mbenzin.cz/
50.5506906,14.5439672,"MOL, Dubá","MOL Česká republika, s.r.o.",Mo-Su 05:00-22:00,,40.65,,41.7,,24.45,17-06-2026,https://www.mbenzin.cz/
49.2018105,16.6671942,MOL,MOL Česká republika,24/7,,40.06,,42.8,,24.44,17-06-2026,https://www.mbenzin.cz/
50.0820072,14.5862187,Petr,,,,39.13,,41.59,,23.95,17-06-2026,https://www.mbenzin.cz/
50.9909317,14.3236316,,,,,39.43,,41.11,,24.04,17-06-2026,https://www.mbenzin.cz/
50.9624518,14.3752319,Herst,,,,39.21,,40.55,,24.06,17-06-2026,https://www.mbenzin.cz/
49.2207228,17.7078995,"Benzina - Zlín, Příluky","Unipetrol RPA, s.r.o. – Benzina",24/7,,39.85,,41.32,,24.03,17-06-2026,https://www.mbenzin.cz/
49.2971706,14.1610337,"Benzina - Písek, U Hřebčince","Unipetrol RPA, s.r.o. – Benzina",05:00-23:00,,39.0,,40.78,,24.31,17-06-2026,https://www.mbenzin.cz/
50.2911131,15.4774382,,,,,39.51,,40.71,,24.55,17-06-2026,https://www.mbenzin.cz/
50.2231261,15.4804853,"KM-Prona, Nový Bydžov","KM - PRONA, a.s.",05:00-22:00,,39.1,,40.46,,23.68,17-06-2026,https://www.mbenzin.cz/
49.8359584,13.579574,MOL Břasy,"MOL Česká republika, s.r.o.",06:00-22:00,,39.88,,42.31,,24.62,17-06-2026,https://www.mbenzin.cz/
49.2776424,17.4013065,Benzina Kotojedy,"Unipetrol RPA, s.r.o. – Benzina",05:00-22:00,,39.44,,41.86,,24.07,17-06-2026,https://www.mbenzin.cz/
49.3014421,17.385704,RoBiN OIL Kroměříž,RoBiN OIL s.r.o.,24/7,,39.69,,41.29,,24.19,17-06-2026,https://www.mbenzin.cz/
50.068383,14.8497387,"MOL, Český Brod","MOL Česká republika, s.r.o.",06:00-22:00,,39.87,,42.5,,24.15,17-06-2026,https://www.mbenzin.cz/
49.8889024,14.3953505,"VS Petrol, Davle",VS PETROL s.r.o.,05:00-23:00,,38.86,,41.83,,24.53,17-06-2026,https://www.mbenzin.cz/
49.9072576,14.3933255,MS oil,,Mo-Su 06:00-21:00,,39.38,,41.18,,24.15,17-06-2026,https://www.mbenzin.cz/
50.0437459,14.4115437,"MOL, Praha 4 - Podolí","MOL Česká republika, s.r.o.",24/7,,39.68,,42.74,,24.87,17-06-2026,https://www.mbenzin.cz/
50.0632059,14.8487466,Orlen Český Brod,,05:00-22:00,,39.49,,40.9,,24.57,17-06-2026,https://www.mbenzin.cz/
50.0970276,14.4794983,Orlen,"Orlen Unipetrol RPA s.r.o. - Benzina, odštěpný závod",24/7,,39.54,,41.43,,24.67,17-06-2026,https://www.mbenzin.cz/
50.2297302,14.2938211,,,,,39.5,,40.95,,24.59,17-06-2026,https://www.mbenzin.cz/
50.2474696,14.3254972,K-Oil,,,,39.43,,41.24,,23.98,17-06-2026,https://www.mbenzin.cz/
49.7769884,13.3462005,Globus,"Globus ČR, v.o.s.",24/7,,39.07,,41.59,,24.0,17-06-2026,https://www.mbenzin.cz/
50.0906291,14.4986853,,,,,39.82,,41.57,,24.58,17-06-2026,https://www.mbenzin.cz/
49.9615111,17.2288251,DZ OIL Stará Ves u Rýmařova,Euro Group Moravia s.r.o.,06:00-19:00,,39.25,,40.53,,24.57,17-06-2026,https://www.mbenzin.cz/
49.3094246,17.4104823,Duba,,,,39.36,,40.54,,24.32,17-06-2026,https://www.mbenzin.cz/
50.0969653,14.4781986,Orlen,"Orlen Unipetrol RPA s.r.o. - Benzina, odštěpný závod",Mo-Su 06:00-22:00,,38.97,,40.66,,24.35,17-06-2026,https://www.mbenzin.cz/
50.1586807,15.2346652,Tank Ono,Tank Ono,24/7,,36.65,,38.75,,22.81,17-06-2026,https://www.mbenzin.cz/
50.0827915,14.462092,Orlen,,,,39.77,,40.93,,24.32,17-06-2026,https://www.mbenzin.cz/
50.7798237,15.4130753,Orlen express,"Orlen Unipetrol RPA s.r.o. - Benzina, odštěpný závod",24/7,,39.08,,41.46,,24.28,17-06-2026,https://www.mbenzin.cz/
50.0092308,14.5426091,Benzina,"BENZINA, s.r.o.",24/7,,39.35,,41.33,,24.6,17-06-2026,https://www.mbenzin.cz/
50.0103898,14.5426557,"Benzina Průhonice, na Prahu","BENZINA, s.r.o.",24/7,,39.51,,40.81,,24.06,17-06-2026,https://www.mbenzin.cz/
49.7448308,14.6723936,Orlen,Orlen Unipetrol RPA,24/7,,39.5,,41.44,,24.1,17-06-2026,https://www.mbenzin.cz/
49.3755119,14.6950625,Shell,,24/7,,40.22,,43.12,,25.0,17-06-2026,https://www.mbenzin.cz/
49.3619836,14.7000112,Ono,Tank ONO s.r.o.,24/7,,36.75,,39.15,,22.8,17-06-2026,https://www.mbenzin.cz/
49.2700879,14.7150337,Benzina - Soběslav,"Unipetrol RPA, s.r.o. – Benzina",05:00-22:00,,39.16,,40.61,,23.99,17-06-2026,https://www.mbenzin.cz/
49.2482733,14.7209447,Hos Soběslav,Josef HOS s.r.o.,24/7,,39.46,,41.83,,23.99,17-06-2026,https://www.mbenzin.cz/
49.227568,14.7209038,Orlen,"Orlen Unipetrol RPA s.r.o. - Benzina, odštěpný závod",Mo-Su 05:00-23:00,,39.98,,41.41,,24.3,17-06-2026,https://www.mbenzin.cz/
49.01932,14.497141,AS 24,JIHOTRANS,,,39.46,,41.82,,24.05,17-06-2026,https://www.mbenzin.cz/
49.001232,14.4841666,Jihotrans,,,,39.01,,40.53,,24.29,17-06-2026,https://www.mbenzin.cz/
48.997529,14.480998,Shell,,24/7,,40.25,,43.09,,25.06,17-06-2026,https://www.mbenzin.cz/
48.9923773,14.4699999,MOL,MOL Česká republika,Mo-Su 05:00-23:00,,40.01,,42.13,,24.82,17-06-2026,https://www.mbenzin.cz/
48.9894715,14.4593538,Orlen,"Orlen Unipetrol RPA s.r.o. - Benzina, odštěpný závod",,,39.46,,41.43,,24.36,17-06-2026,https://www.mbenzin.cz/
48.9725582,14.4657676,OMV,OMV Česká republika,24/7,,40.79,,42.64,,24.9,17-06-2026,https://www.mbenzin.cz/
48.9740863,14.4647732,MOL,MOL Česká republika,24/7,,39.8,,42.7,,24.54,17-06-2026,https://www.mbenzin.cz/
48.96377,14.45793,OMV,"OMV Česká republika, s.r.o.",Mo-Su 05:00 - 22:00,,41.1,,43.32,,24.43,17-06-2026,https://www.mbenzin.cz/
50.0811558,14.5085994,Shell,Shell,,,40.34,,43.11,,24.36,17-06-2026,https://www.mbenzin.cz/
49.0103006,16.6878181,"MOL, Zeleňák - D2 => Brno","MOL Česká republika, s.r.o.",24/7,,40.36,,42.22,,24.3,17-06-2026,https://www.mbenzin.cz/
49.0106718,16.6869867,"MOL, Zeleňák - D2 => Bratislava","MOL Česká republika, s.r.o.",24/7,,40.2,,41.57,,24.77,17-06-2026,https://www.mbenzin.cz/
49.9384451,15.7954575,"Eurobit, Chrudim 1",EUROBIT - čerpací stanice s.r.o.,05:00-22:00,,38.88,,40.78,,23.74,17-06-2026,https://www.mbenzin.cz/
49.9677866,15.7082664,,,,,38.88,,40.55,,24.63,17-06-2026,https://www.mbenzin.cz/
50.1508887,15.7947121,"KM-Prona, Opatovice nad Labem","KM - PRONA, a.s.",05:00-22:00,,39.05,,40.68,,24.23,17-06-2026,https://www.mbenzin.cz/
50.0084484,15.7730449,"Benzina - Pardubice, Dražkovice","Unipetrol RPA, s.r.o. – Benzina",05:00-21:00,,39.89,,41.22,,23.93,17-06-2026,https://www.mbenzin.cz/
50.6438737,15.197135,,GBO,,,39.04,,41.42,,23.96,17-06-2026,https://www.mbenzin.cz/
50.57823,15.0711151,Shell Příšovice směr Turnov,Shell,24/7,,40.4,,43.09,,24.65,17-06-2026,https://www.mbenzin.cz/
50.579113,15.0706988,Shell Příšovice směr Mladá Boleslav,Shell,24/7,,40.27,,42.14,,24.41,17-06-2026,https://www.mbenzin.cz/
50.2270845,14.7216001,RoBiN OIL Čtyři Kameny,RoBiN OIL s.r.o.,24/7,,38.94,,40.82,,24.08,17-06-2026,https://www.mbenzin.cz/
48.9350604,13.7656466,Orlen,"Orlen Unipetrol RPA s.r.o. - Benzina, odštěpný závod",Mo-Su 05:00-24:00,,39.11,,41.84,,24.37,17-06-2026,https://www.mbenzin.cz/
49.9908771,15.6374246,Cyklos,,,,39.28,,41.68,,24.28,17-06-2026,https://www.mbenzin.cz/
49.9455545,15.6751192,Prim Heřmanův Městec,PETRA s.r.o.,06:00-22:00,,39.85,,40.91,,24.08,17-06-2026,https://www.mbenzin.cz/
50.0756974,14.3128042,OMV,OMV,24/7,,40.25,,43.19,,24.73,17-06-2026,https://www.mbenzin.cz/
50.0582785,14.312284,Shell,,,,41.09,,42.29,,25.0,17-06-2026,https://www.mbenzin.cz/
50.2087807,16.2354568,"KM-Prona, Solnice","KM - PRONA, a.s.",Mo-Fr 05:00-22:30; Sa-Su 07:00-21:00,,39.15,,40.2,,24.13,17-06-2026,https://www.mbenzin.cz/
50.1578403,16.0638961,EuroOil Týniště nad Orlicí,"Čepro, a.s.",Mo-Su 06:00-20:00,,38.99,,40.95,,24.45,17-06-2026,https://www.mbenzin.cz/
50.1434496,16.0892935,Benzina - Týniště Nad Orlicí,"Unipetrol RPA, s.r.o. – Benzina",05:00-22:00,,38.94,,40.57,,24.17,17-06-2026,https://www.mbenzin.cz/
49.2620724,16.5764183,Globus,"Globus ČR, v.o.s.",Mo-Su 07:00-21:00,,39.13,,41.42,,24.25,17-06-2026,https://www.mbenzin.cz/
49.2546348,16.5856974,Shell,,,,40.47,,42.79,,24.75,17-06-2026,https://www.mbenzin.cz/
50.7344389,15.2704992,Tank & Oil,,,,39.24,,40.58,,24.58,17-06-2026,https://www.mbenzin.cz/
50.736349,15.2485074,RoBiN OIL Smržovka,RoBiN OIL s.r.o.,24/7,,38.89,,40.86,,24.61,17-06-2026,https://www.mbenzin.cz/
50.477428,14.9511981,RoBiN OIL Bakov n. Jizerou,RoBiN OIL s.r.o.,24/7,,39.8,,41.72,,24.66,17-06-2026,https://www.mbenzin.cz/
50.4056956,14.9315484,Orlen,,24/7,,38.96,,41.64,,24.08,17-06-2026,https://www.mbenzin.cz/
50.405381,14.9322106,Orlen,,24/7,,39.2,,41.82,,24.49,17-06-2026,https://www.mbenzin.cz/
50.1108988,14.9193566,MOL Poříčany,"MOL Česká republika, s.r.o.",Mo-Fr 06:00-21:00; Sa-Su 07:00-21:00,,40.41,,41.87,,24.46,17-06-2026,https://www.mbenzin.cz/
50.1324651,14.8613829,MOL,MOL Česká republika,24/7,,39.89,,42.04,,24.42,17-06-2026,https://www.mbenzin.cz/
50.1365766,13.1846858,Medos Agro,,,,39.63,,40.7,,24.13,17-06-2026,https://www.mbenzin.cz/
49.8220484,17.2029103,,,,,39.48,,41.24,,24.66,17-06-2026,https://www.mbenzin.cz/
50.107443,14.5606746,Texaco V.J. Station,,Mo-Su 05:00-23:00,,39.21,,40.85,,24.21,17-06-2026,https://www.mbenzin.cz/
50.1108677,14.590243,"MOL, Horní Počernice, Náchodská","MOL Česká republika, s.r.o.",24/7,,39.91,,41.67,,24.5,17-06-2026,https://www.mbenzin.cz/
50.5955335,15.1328181,"Kontakt, Ohrazenice","Kontakt - služby motoristům, spol. s r.o.",24/7,,39.85,,40.7,,24.38,17-06-2026,https://www.mbenzin.cz/
50.6479386,15.2551296,Benzina Železný Brod,"Benzina, s.r.o.",6:00-20:00,,39.0,,41.69,,24.3,17-06-2026,https://www.mbenzin.cz/
50.7090691,15.315761,Orlen,"Orlen Unipetrol RPA s.r.o. - Benzina, odštěpný závod",Mo-Su 05:00-22:00,,39.93,,40.73,,24.44,17-06-2026,https://www.mbenzin.cz/
50.7186078,15.4217492,EuroOil Rokytnice nad Jizerou,"Čepro, a.s.",Mo-Su 06:00-21:00,,39.72,,40.96,,23.92,17-06-2026,https://www.mbenzin.cz/
50.1649364,16.2715787,Benzina - Rychnov Nad Kněžnou,"Unipetrol RPA, s.r.o. – Benzina",24/7,,39.67,,41.35,,24.38,17-06-2026,https://www.mbenzin.cz/
50.0046983,14.9819579,"EuroOil Kouřim, Kolínská","Čepro, a.s.",Mo-Su 06:00-19:00,,39.65,,40.71,,24.51,17-06-2026,https://www.mbenzin.cz/
49.9888005,14.7149151,Prim Tehovec,PETRA s.r.o.,06:00-22:00,,39.88,,41.68,,24.35,17-06-2026,https://www.mbenzin.cz/
50.7702197,14.1984999,Prim Děčín,PETRA s.r.o.,06:00-21:00,,39.31,,40.53,,23.99,17-06-2026,https://www.mbenzin.cz/
50.3008678,16.3555294,EuroOil Deštné v Orlických horách,"Čepro, a.s.",Mo-Su 06:00-18:00,,39.43,,41.44,,24.09,17-06-2026,https://www.mbenzin.cz/
49.1728084,16.5550758,Prim,PETRA s.r.o.,06:00-22:00,,39.22,,41.42,,23.98,17-06-2026,https://www.mbenzin.cz/
49.3921197,13.2761599,Shell Klatovy,,24/7,,40.28,,42.43,,24.37,17-06-2026,https://www.mbenzin.cz/
50.4848752,13.0250888,Pasoil,,Mo-Su 07:00-22:00,,39.92,,41.71,,23.99,17-06-2026,https://www.mbenzin.cz/
50.1997818,14.8463629,Prim Lysá nad Labem,PETRA s.r.o.,24/7,,38.82,,41.02,,23.92,17-06-2026,https://www.mbenzin.cz/
49.8873125,16.0383461,,,,,39.4,,41.36,,23.95,17-06-2026,https://www.mbenzin.cz/
50.1763048,14.4458038,Hrubý,Hrubý,24/7,,38.84,,40.99,,24.1,17-06-2026,https://www.mbenzin.cz/
50.4448041,14.7712155,u cesty,,,,39.61,,41.31,,24.57,17-06-2026,https://www.mbenzin.cz/
49.8796914,16.2937319,MOL,,,,39.64,,42.23,,24.49,17-06-2026,https://www.mbenzin.cz/
50.4762796,14.8453403,PB Trans,,"Mo-Fr 06:30-17:00; Sa,Su 09:00-13:00",,39.33,,41.43,,24.26,17-06-2026,https://www.mbenzin.cz/
50.2786918,14.8303489,"MOL, Benátky nad Jizerou","MOL Česká republika, s.r.o.",05:00-22:00,,39.99,,42.7,,24.87,17-06-2026,https://www.mbenzin.cz/
50.1117049,14.4457853,OMV,OMV Česká republika,24/7,,40.83,,42.34,,24.95,17-06-2026,https://www.mbenzin.cz/
50.0360167,14.4926632,"MOL, Türkova","MOL Česká republika, s.r.o.",24/7,,40.69,,42.15,,24.17,17-06-2026,https://www.mbenzin.cz/
50.051035,14.446566,OMV,OMV,24/7,,40.64,,42.2,,24.85,17-06-2026,https://www.mbenzin.cz/
49.5732023,17.2323614,OMV,OMV Česká republika,24/7,,40.68,,42.52,,24.56,17-06-2026,https://www.mbenzin.cz/
48.9029986,16.187083,Dominik,,,,38.99,,41.41,,24.64,17-06-2026,https://www.mbenzin.cz/
50.0323439,15.1781602,"MOL, Kolín - Pražská","MOL Česká republika, s.r.o.",24/7,,39.76,,41.8,,24.3,17-06-2026,https://www.mbenzin.cz/
49.2949447,16.6658737,,Tatoil,,,39.9,,41.13,,24.59,17-06-2026,https://www.mbenzin.cz/
50.1493357,14.3271492,Orlen Suchdol,,05:00-22:00,,39.32,,41.53,,24.09,17-06-2026,https://www.mbenzin.cz/
50.1769943,14.3196377,"KM-Prona, Tursko","KM - PRONA, a.s.",24/7,,39.14,,41.26,,24.33,17-06-2026,https://www.mbenzin.cz/
49.6079808,18.0301362,"MOL, Nový Jičín","MOL Česká republika, s.r.o.",05:00-22:00,,40.17,,41.67,,24.4,17-06-2026,https://www.mbenzin.cz/
49.6074889,18.0298643,Orlen,"Orlen Unipetrol RPA s.r.o. - Benzina, odštěpný závod",24/7,,39.55,,41.37,,24.5,17-06-2026,https://www.mbenzin.cz/
49.1684625,16.599703,JEF,JEF,24/7,,39.69,,41.83,,23.92,17-06-2026,https://www.mbenzin.cz/
50.5602789,14.6529359,PH Oil,,,,39.92,,41.3,,24.08,17-06-2026,https://www.mbenzin.cz/
50.5076265,14.7872885,RoBiN OIL Bělá pod Bezdězem,RoBiN OIL s.r.o.,24/7,,39.17,,41.49,,24.45,17-06-2026,https://www.mbenzin.cz/
50.4298903,14.9312056,"MOL, Kosmonosy","MOL Česká republika, s.r.o.",Mo-Su 05:00-22:00,,40.37,,42.06,,24.62,17-06-2026,https://www.mbenzin.cz/
50.4313723,15.4019373,"MOL, Jičín","MOL Česká republika, s.r.o.",24/7,,40.0,,42.45,,24.27,17-06-2026,https://www.mbenzin.cz/
50.0995338,14.7128346,PETR,PETR CAR a.s.,,,39.78,,41.22,,24.54,17-06-2026,https://www.mbenzin.cz/
50.1471296,14.8260989,MOL,MOL Česká republika,Mo-Su 06:00-20:00,,39.79,,41.6,,24.65,17-06-2026,https://www.mbenzin.cz/
50.1567206,14.7431979,Benzina - Čelákovice,"Unipetrol RPA, s.r.o. – Benzina",05:00-22:00,,39.8,,41.69,,24.15,17-06-2026,https://www.mbenzin.cz/
50.7943785,14.8540677,RoBiN OIL Jítrava,RoBiN OIL s.r.o.,24/7,,39.98,,40.9,,24.65,17-06-2026,https://www.mbenzin.cz/
50.8172105,14.9507229,"MOL, Chrastava","MOL Česká republika, s.r.o.",24/7,,39.74,,41.73,,24.15,17-06-2026,https://www.mbenzin.cz/
50.8136474,14.962562,Orlen,,05:00-22:00,,39.52,,41.68,,24.12,17-06-2026,https://www.mbenzin.cz/
50.8068565,14.9742955,EuroOil Chrastava,"Čepro, a.s.",Mo-Su 05:30-21:00,,39.61,,41.3,,24.37,17-06-2026,https://www.mbenzin.cz/
50.7681777,15.041078,"Shell Žitavská, Liberec","Shell Czech Republic, a.s.",24/7,,40.83,,43.15,,24.32,17-06-2026,https://www.mbenzin.cz/
50.7537876,15.0524896,Cobalt,,Mo-Su 05:00-22:00,,40.0,,41.66,,24.01,17-06-2026,https://www.mbenzin.cz/
50.7423593,15.0530884,"MOL, Liberec Doubí","MOL Česká republika, s.r.o.",24/7,,40.02,,42.0,,24.2,17-06-2026,https://www.mbenzin.cz/
50.667909,15.0953162,"KM-Prona, Hodkovice nad Mohelkou","KM - PRONA, a.s.",24/7,,38.67,,41.05,,24.27,17-06-2026,https://www.mbenzin.cz/
49.1122266,16.3765988,Orlen,"Orlen Unipetrol RPA s.r.o. - Benzina, odštěpný závod",Mo-Su 05:00-22:00,,39.25,,40.66,,24.07,17-06-2026,https://www.mbenzin.cz/
49.0757049,17.4538596,Shell,Shell,,,40.67,,43.38,,24.82,17-06-2026,https://www.mbenzin.cz/
49.1766307,16.602597,Shell,,"PH,Mo-Su 00:00-24:00",,40.69,,42.57,,24.38,17-06-2026,https://www.mbenzin.cz/
49.0742689,17.4217067,Benzina - Staré Město,"Unipetrol RPA, s.r.o. – Benzina",24/7,,39.08,,40.53,,24.24,17-06-2026,https://www.mbenzin.cz/
49.7857205,18.3727483,EuroOil Šenov - střed,"Čepro, a.s.",Mo-Su 06:00-20:00,,38.88,,41.6,,24.14,17-06-2026,https://www.mbenzin.cz/
50.4575628,13.3956538,Globus,"Globus ČR, v.o.s.",24/7,,39.92,,41.6,,24.45,17-06-2026,https://www.mbenzin.cz/
50.4580971,13.3960458,"MOL, Chomutov Černovická","MOL Česká republika, s.r.o.",24/7,,40.52,,42.2,,24.51,17-06-2026,https://www.mbenzin.cz/
49.1751077,16.5622194,"MOL, Brno - Bítešská","MOL Česká republika, s.r.o.",24/7,,39.78,,41.48,,24.29,17-06-2026,https://www.mbenzin.cz/
50.1380077,14.3665327,Orlen,,,,39.41,,41.64,,24.53,17-06-2026,https://www.mbenzin.cz/
49.2037171,17.5634958,Makro,Makro,Mo-Sa 06:00-21:00; Su 07:00-21:00,,38.87,,40.7,,24.68,17-06-2026,https://www.mbenzin.cz/
50.3034258,15.254062,RoBiN OIL Budčeves,RoBiN OIL s.r.o.,05:00-22:00,,39.43,,41.4,,24.46,17-06-2026,https://www.mbenzin.cz/
49.4078778,12.9554902,ZOD Mrákov,ZOD Mrákov,Mo-Su 05:00-21:00,,38.86,,41.37,,24.09,17-06-2026,https://www.mbenzin.cz/
49.3692949,16.6414959,Shell,Shell Czech Republic a.s.,05:00-23:00,,40.86,,43.31,,24.55,17-06-2026,https://www.mbenzin.cz/
49.8456726,14.674799,Shell,,06:00-22:00,,40.16,,42.02,,24.57,17-06-2026,https://www.mbenzin.cz/
50.6494368,14.0041347,,,Mo-Su 00:00-00:00,,38.83,,41.28,,24.0,17-06-2026,https://www.mbenzin.cz/
49.4281236,12.9465607,Fronk,,,,39.56,,40.79,,23.95,17-06-2026,https://www.mbenzin.cz/
49.4392555,12.825195,Čerchovka,,,,39.6,,40.6,,23.97,17-06-2026,https://www.mbenzin.cz/
49.438906,12.8289821,Orlen,"Orlen Unipetrol RPA s.r.o. - Benzina, odštěpný závod",Mo-Su 06:00-20:00,,39.54,,41.54,,24.33,17-06-2026,https://www.mbenzin.cz/
50.0326478,15.1792891,OMV,OMV,05:00-21:00,,40.71,,43.28,,24.39,17-06-2026,https://www.mbenzin.cz/
50.008884,15.2292547,Rabštejn,,"PH,Mo-Su 05:00-21:00",,39.93,,41.47,,24.43,17-06-2026,https://www.mbenzin.cz/
49.1329243,13.7236921,RoBiN OIL Vacov,RoBiN OIL s.r.o.,05:00-23:00,,39.45,,41.82,,24.28,17-06-2026,https://www.mbenzin.cz/
49.0584633,13.7847926,EuroOil Vimperk,"Čepro, a.s.",24/7,,39.47,,40.92,,24.05,17-06-2026,https://www.mbenzin.cz/
49.6351664,14.6396002,Oktan Votice,"OKTANnew cz, s.r.o.",Mo-Fr 06:00-20:00; Sa 07:00-20:00; Su 08:00-20:00,,39.76,,40.67,,24.05,17-06-2026,https://www.mbenzin.cz/
50.3264861,15.2635997,RoBiN OIL Kopidlno,RoBiN OIL s.r.o.,24/7,,39.97,,41.29,,24.66,17-06-2026,https://www.mbenzin.cz/
50.4354564,15.1190023,MOL Dolní Bousov,"MOL Česká republika, s.r.o.",06:00-22:00,,40.05,,42.15,,24.22,17-06-2026,https://www.mbenzin.cz/
50.0685349,14.3528136,RoBiN OIL Praha - Motol,RoBiN OIL s.r.o.,24/7,,39.49,,41.45,,24.56,17-06-2026,https://www.mbenzin.cz/
50.0690137,14.3584084,OMV,OMV Česká republika,24/7,,40.05,,42.91,,24.48,17-06-2026,https://www.mbenzin.cz/
50.269545,14.9649483,EuroOil Vlkava,"Čepro, a.s.",Mo-Su 06:00-20:00,,38.95,,41.66,,23.95,17-06-2026,https://www.mbenzin.cz/
50.5091311,16.0268822,HDB,,24/7,,39.88,,41.15,,24.07,17-06-2026,https://www.mbenzin.cz/
50.5138426,16.0158308,HDB,,,,39.37,,41.82,,24.67,17-06-2026,https://www.mbenzin.cz/
49.2970285,16.546009,OMV,OMV,Mo-Su 05:00-22:00,,41.18,,43.16,,25.05,17-06-2026,https://www.mbenzin.cz/
50.043546,15.0760995,EuroOil Nové Město - samoobslužná,"Čepro, a.s.",24/7,,39.09,,41.29,,24.06,17-06-2026,https://www.mbenzin.cz/
50.2557658,14.4963709,Avia Byškovice u Neratovic,"QATRO,spol. s r.o.",06:00-22:00,,39.18,,41.5,,24.09,17-06-2026,https://www.mbenzin.cz/
49.8949562,14.500671,Silmet Jílové u Prahy,SILMET Příbram a.s.,06:00-21:00,,38.88,,41.49,,24.28,17-06-2026,https://www.mbenzin.cz/
49.0182185,17.6602009,OMV,OMV,24/7,,40.14,,42.76,,25.01,17-06-2026,https://www.mbenzin.cz/
50.3864014,13.1643969,Orlen,"Orlen Unipetrol RPA s.r.o. - Benzina, odštěpný závod",Mo-Su 05:00-22:00,,39.8,,41.21,,23.9,17-06-2026,https://www.mbenzin.cz/
49.3253856,17.5521514,Orlen,Orlen Unipetrol RPA,Mo-Su 05:00-22:00,,39.58,,40.76,,24.67,17-06-2026,https://www.mbenzin.cz/
49.6668417,14.4235514,Orlen Sedlčany,,05:00-22:00,,39.52,,40.65,,24.11,17-06-2026,https://www.mbenzin.cz/
48.9357203,14.1537258,u Krížku,,,,39.88,,40.97,,24.47,17-06-2026,https://www.mbenzin.cz/
49.1476961,18.0221009,Benzina - Valašské Klobouky,"Unipetrol RPA, s.r.o. – Benzina",05:00-22:00,,38.8,,40.79,,24.57,17-06-2026,https://www.mbenzin.cz/
49.4327021,15.6014107,Nordika,,,,39.41,,41.45,,24.26,17-06-2026,https://www.mbenzin.cz/
50.166536,15.6008563,EuroOil Kratonohy,"Čepro, a.s.",Mo-Su 06:00-21:00,,37.28,,39.01,,23.57,17-06-2026,https://www.mbenzin.cz/
50.4528122,13.8325638,"Jupí, a.s.",,,,39.07,,41.36,,24.27,17-06-2026,https://www.mbenzin.cz/
50.5795582,15.155025,Kontakt Turnov,"Kontakt - služby motoristům, spol. s r.o.",24/7,,39.59,,41.17,,24.11,17-06-2026,https://www.mbenzin.cz/
50.0245126,14.441698,,,,,39.36,,40.62,,23.97,17-06-2026,https://www.mbenzin.cz/
49.8133287,18.2411951,"MOL, Ostrava - Plzeňská","MOL Česká republika, s.r.o.",,,39.98,,42.66,,24.39,17-06-2026,https://www.mbenzin.cz/
50.7986819,14.2380024,AVIA,AVIA Česká republika s.r.o.,Mo-Su 05:00-21:00,,39.09,,40.43,,24.24,17-06-2026,https://www.mbenzin.cz/
49.6558239,14.4501437,Čerpací Stanice Sedlčany,,,,39.4,,41.89,,24.46,17-06-2026,https://www.mbenzin.cz/
49.5753652,14.5298609,MOL Sedlec - Prčice,"MOL Česká republika, s.r.o.",Mo-Fr 06:00-20:00; Sa-Su 07:00-19:00,,40.15,,42.41,,24.15,17-06-2026,https://www.mbenzin.cz/
49.5078605,14.612818,Oktan,,,,39.68,,40.57,,23.91,17-06-2026,https://www.mbenzin.cz/
50.7841178,14.3618832,RoBiN OIL Markvartice,RoBiN OIL s.r.o.,24/7,,39.58,,40.82,,24.27,17-06-2026,https://www.mbenzin.cz/
49.8085333,13.8583833,MOL Komárov,"MOL Česká republika, s.r.o.",Mo-Fr 05:30-20:00; Sa-Su 07:00-20:00,,40.7,,41.62,,24.14,17-06-2026,https://www.mbenzin.cz/
50.3383616,14.4937545,Orlen,,Mo-Su 05:00-23:00,,39.91,,41.72,,24.67,17-06-2026,https://www.mbenzin.cz/
50.3479978,14.4922053,Shell,Shell,24/7,,41.17,,42.18,,24.85,17-06-2026,https://www.mbenzin.cz/
50.4041554,14.4484461,Benzina,Benzina,,,38.98,,41.81,,24.07,17-06-2026,https://www.mbenzin.cz/
49.2172082,16.5200466,Shell,Shell,,,40.81,,42.15,,24.72,17-06-2026,https://www.mbenzin.cz/
49.6829754,18.3396689,"MOL, Frýdek-Místek","MOL Česká republika, s.r.o.",24/7,,40.53,,41.81,,24.13,17-06-2026,https://www.mbenzin.cz/
48.9829932,17.5436878,EuroOil Hluk,"Čepro, a.s.",Mo-Su 06:00-18:00,,39.82,,41.39,,24.07,17-06-2026,https://www.mbenzin.cz/
49.406292,15.5917947,OMV,OMV,24/7,,41.06,,42.83,,24.7,17-06-2026,https://www.mbenzin.cz/
49.2788153,17.6852959,,,,,39.41,,40.98,,24.32,17-06-2026,https://www.mbenzin.cz/
49.898054,13.3768968,Orlen,"Orlen Unipetrol RPA s.r.o. - Benzina, odštěpný závod",Mo-Su 05:00-22:00,,39.63,,41.29,,23.97,17-06-2026,https://www.mbenzin.cz/
49.2482284,17.6896291,,,,,39.99,,41.84,,24.47,17-06-2026,https://www.mbenzin.cz/
49.383224,15.6974326,,,,,39.46,,40.73,,24.57,17-06-2026,https://www.mbenzin.cz/
49.3121045,16.4865896,ORLEN,ORLEN,05:00-22:00,,39.72,,41.49,,24.58,17-06-2026,https://www.mbenzin.cz/
49.9757668,16.3896692,Shell,,,,40.11,,42.71,,24.41,17-06-2026,https://www.mbenzin.cz/
49.9814693,16.3946341,"Orlen - Ústí Nad Orlicí, Královéhradecká","Unipetrol RPA, s.r.o. – Benzina",24/7,,39.5,,41.56,,23.93,17-06-2026,https://www.mbenzin.cz/
49.3913239,15.5482967,Benzina,,,,39.02,,40.56,,24.44,17-06-2026,https://www.mbenzin.cz/
50.0623057,14.410552,"MOL, Strakonická","MOL Česká republika, s.r.o.",24/7,,40.17,,42.27,,24.12,17-06-2026,https://www.mbenzin.cz/
50.051368,14.410917,Shell,,Mo-Su 06:00-22:00,,40.99,,43.25,,24.3,17-06-2026,https://www.mbenzin.cz/
50.0388673,14.4666589,Shell,Shell,24/7,,41.1,,42.54,,25.08,17-06-2026,https://www.mbenzin.cz/
49.780217,14.9325975,Shell,,,,40.06,,42.58,,24.61,17-06-2026,https://www.mbenzin.cz/
49.7529801,15.0187253,Orlen,,24/7,,39.51,,41.63,,24.64,17-06-2026,https://www.mbenzin.cz/
49.2812414,17.0198483,MOL,,,,40.71,,41.57,,24.27,17-06-2026,https://www.mbenzin.cz/
50.2502962,14.3203601,Orlen,,24/7,,38.84,,41.38,,24.41,17-06-2026,https://www.mbenzin.cz/
49.5310016,17.8629365,AB Oil,AB - Oil,24/7,,39.78,,40.84,,24.67,17-06-2026,https://www.mbenzin.cz/
49.4969995,17.962278,"Orlen - Valašské Meziříčí, Hřbitovní",Orlen,,,39.3,,41.57,,24.56,17-06-2026,https://www.mbenzin.cz/
49.4850117,17.9641672,Tesco Valašské Meziříčí,Tesco Stores ČR a.s.,06:00-22:00,,39.46,,41.77,,24.03,17-06-2026,https://www.mbenzin.cz/
49.4175258,17.9542256,"Limitoo, Bystřička",Limitoo s.r.o.,"Mo-Fr 05:30-21:00; Sa,Su 06:00-21:00",,39.77,,41.83,,24.29,17-06-2026,https://www.mbenzin.cz/
49.3788141,17.9452715,,,,,39.27,,41.09,,24.51,17-06-2026,https://www.mbenzin.cz/
49.3631921,17.9588846,"UNION ROAD, s.r.o.","UNION ROAD, s.r.o.",6:00-22:00,,39.22,,40.69,,24.04,17-06-2026,https://www.mbenzin.cz/
49.3624134,17.9567767,"Autoservis Bobrky, a.s.","Autoservis Bobrky, a.s.",06:00-22:00,,39.53,,41.0,,24.5,17-06-2026,https://www.mbenzin.cz/
49.2156258,18.0493531,Silmet Lidečko,SILMET Příbram a.s.,Mo-Fr 05:00-22:00;Sa-Su 07:00-20:00,,39.62,,41.31,,24.34,17-06-2026,https://www.mbenzin.cz/
49.4600636,18.1287713,OMV,"OMV Česká republika, s.r.o.",24/7,,40.7,,42.61,,24.72,17-06-2026,https://www.mbenzin.cz/
50.2021463,14.6869075,Robin Oil,RoBiN OIL s.r.o.,24/7,,39.41,,41.17,,24.52,17-06-2026,https://www.mbenzin.cz/
48.9480545,16.7283937,Agrotec,,,,38.86,,41.61,,24.33,17-06-2026,https://www.mbenzin.cz/
49.2361999,16.5870972,"MOL, Řečkovice - Palackého","MOL Česká republika, s.r.o.","Mo-Fr 06:00-22:00, Sa-Su 07:00-22:00",,40.36,,42.07,,24.82,17-06-2026,https://www.mbenzin.cz/
48.9471348,17.3725712,Unicorn Oil,,,,39.38,,40.76,,24.29,17-06-2026,https://www.mbenzin.cz/
48.867437,17.114149,Shell,Shell Czech Republic,24/7,,40.64,,42.82,,24.79,17-06-2026,https://www.mbenzin.cz/
48.9440338,17.3707738,ČSAD Hodonín,,,,38.94,,40.88,,24.01,17-06-2026,https://www.mbenzin.cz/
48.8474975,17.0720165,OMV,OMV Česká republika,24/7,,40.26,,42.85,,24.38,17-06-2026,https://www.mbenzin.cz/
49.8733688,14.8855477,MOL Sázava,"MOL Česká republika, s.r.o.",06:00-22:00,,40.58,,41.62,,24.88,17-06-2026,https://www.mbenzin.cz/
50.5355701,14.1457279,"MOL, Litoměřice","MOL Česká republika, s.r.o.",24/7,,40.23,,42.44,,24.9,17-06-2026,https://www.mbenzin.cz/
49.845384,14.9681819,,,,,39.39,,41.5,,23.98,17-06-2026,https://www.mbenzin.cz/
49.7792053,15.0160719,CS POINT,Kácov,,,38.93,,41.05,,24.56,17-06-2026,https://www.mbenzin.cz/
49.6665417,15.3982417,EuroOil Světlá nad Sázavou,"Čepro, a.s.",24/7,,39.78,,40.61,,24.68,17-06-2026,https://www.mbenzin.cz/
50.0002324,14.0028236,Avia Nižbor,BENOL s.r.o.,05:30-21:00,,38.39,,40.91,,23.76,17-06-2026,https://www.mbenzin.cz/
49.2096438,15.8945077,Benzina,,,,39.58,,41.39,,24.28,17-06-2026,https://www.mbenzin.cz/
49.2016907,15.897548,E.ON - plnicí stanice CNG,,,,39.62,,41.7,,24.06,17-06-2026,https://www.mbenzin.cz/
50.2342814,14.5905754,Orlen Kostelec nad Labem,,06:00-21:00,,39.96,,41.33,,24.01,17-06-2026,https://www.mbenzin.cz/
48.8948467,17.7105141,Limitoo Strání,Limitoo s.r.o.,"Mo-Fr 06:00-19:00; Sa,Su 07:00-19:00",,39.12,,41.69,,24.43,17-06-2026,https://www.mbenzin.cz/
49.1028402,16.6032826,Tank Ono - ČS Brno-Popovice,Tank ONO s.r.o.,24/7,,36.45,,38.33,,23.49,17-06-2026,https://www.mbenzin.cz/
49.014799,16.6010459,as,,,,39.77,,40.61,,24.55,17-06-2026,https://www.mbenzin.cz/
48.9817212,14.4418491,Robin Oil,RoBiN OIL s.r.o.,24/7,,39.93,,41.28,,24.15,17-06-2026,https://www.mbenzin.cz/
49.660908,18.6614201,Shell,,,,40.47,,42.24,,24.42,17-06-2026,https://www.mbenzin.cz/
49.3856943,15.5936325,OMV,OMV,Mo-Su 05:00-23:00,,40.86,,42.94,,24.37,17-06-2026,https://www.mbenzin.cz/
49.3812697,15.5923998,Benzina,,,,39.19,,40.54,,24.51,17-06-2026,https://www.mbenzin.cz/
50.1311471,15.0818951,Shell,,,,40.17,,42.23,,24.41,17-06-2026,https://www.mbenzin.cz/
50.2149685,15.0514004,Herst Bobnice,"Herst, s.r.o.",,,38.89,,40.57,,23.99,17-06-2026,https://www.mbenzin.cz/
49.3188665,15.4011146,ČS Batelov,,24/7,,39.39,,40.87,,24.16,17-06-2026,https://www.mbenzin.cz/
50.2209827,12.1906883,Free1 GAS Aš Q1,TOP TANK s.r.o.,Mo-Fr 07:00-22:00; Sa-Su 7:00-19:00,,39.13,,41.24,,24.05,17-06-2026,https://www.mbenzin.cz/
49.0764764,16.4455013,,,,,39.61,,41.38,,24.45,17-06-2026,https://www.mbenzin.cz/
50.5863917,13.5602218,G.A.S. Petroleum,G.A.S. Petroleum Group,Mo-Su 05:30-22:00,,39.84,,41.16,,24.57,17-06-2026,https://www.mbenzin.cz/
50.4340197,14.6279777,Kabe Mšeno,,,,39.2,,41.82,,24.28,17-06-2026,https://www.mbenzin.cz/
49.427669,15.5999114,Mobil Gas Centrum spol. s r.o.,,Mo-Fr 07:00-19:00; Sa-Su 08:00-19:00,,39.48,,40.73,,24.32,17-06-2026,https://www.mbenzin.cz/
49.8783437,13.9025056,Maja Oil,,,,39.97,,40.74,,24.24,17-06-2026,https://www.mbenzin.cz/
50.1133789,14.6020745,Orlen,,24/7,,38.98,,41.18,,24.03,17-06-2026,https://www.mbenzin.cz/
50.1096001,14.6237119,Benzina - Horní Počernice,"Unipetrol RPA, s.r.o. – Benzina",05:00-22:00,,39.9,,41.45,,23.9,17-06-2026,https://www.mbenzin.cz/
50.5384073,14.5349557,Forus,,,,39.39,,40.52,,24.3,17-06-2026,https://www.mbenzin.cz/
50.3655035,14.4784716,Topexol,,,,38.9,,41.54,,24.33,17-06-2026,https://www.mbenzin.cz/
50.3450392,14.4172976,2S Býkev,2S,,,39.03,,40.77,,24.07,17-06-2026,https://www.mbenzin.cz/
50.1858355,14.0338839,Orlen,"Orlen Unipetrol RPA s.r.o. - Benzina, odštěpný závod",Mo-Su 05:00-23:00,,39.67,,41.55,,24.4,17-06-2026,https://www.mbenzin.cz/
50.1081723,14.6379094,Orlen,,24/7,,39.66,,41.15,,24.56,17-06-2026,https://www.mbenzin.cz/
49.1289214,14.0856572,EuroOil Bavorov,"Čepro, a.s.",Mo-Su 06:00-19:00,,39.06,,41.4,,24.63,17-06-2026,https://www.mbenzin.cz/
49.9962716,13.5554605,Roal oil,,,,39.47,,41.19,,24.21,17-06-2026,https://www.mbenzin.cz/
49.7626587,15.480932,Orlen,,Mo-Sa 05:00-22:00; Su 06:00-22:00,,39.04,,41.54,,24.44,17-06-2026,https://www.mbenzin.cz/
49.3304847,13.5401551,MOL Nalžovské Hory,"MOL Česká republika, s.r.o.",06:00-22:00,,40.12,,42.79,,24.87,17-06-2026,https://www.mbenzin.cz/
49.1706202,13.4606327,RoBiN OIL Hartmanice,RoBiN OIL s.r.o.,Mo-Su 06:00-18:00,,39.9,,41.81,,23.91,17-06-2026,https://www.mbenzin.cz/
49.262228,14.9301267,AGRA Deštná,,,,39.58,,41.51,,24.23,17-06-2026,https://www.mbenzin.cz/
49.923285,14.2563125,Martin Oil,MARTIN Oil s.r.o.,05:00-22:00,,39.39,,41.07,,24.26,17-06-2026,https://www.mbenzin.cz/
50.2406228,15.5005178,Benzina - Nový Bydžov,"Unipetrol RPA, s.r.o. – Benzina",05:00-23:00,,39.93,,40.67,,24.7,17-06-2026,https://www.mbenzin.cz/
49.8704725,17.0900347,EuroOil Libina,"Čepro, a.s.",Mo-Su 06:00-20:00,,38.96,,41.49,,24.03,17-06-2026,https://www.mbenzin.cz/
49.6426516,18.3227248,,,,,39.0,,41.54,,24.31,17-06-2026,https://www.mbenzin.cz/
50.6012057,15.5190896,BusLine,,,,38.89,,41.68,,24.22,17-06-2026,https://www.mbenzin.cz/
50.5926006,15.3312944,Benzina,"Benzina, s.r.o.",5:00-21:00,,38.86,,41.11,,24.18,17-06-2026,https://www.mbenzin.cz/
50.5728131,15.4121789,,,,,39.11,,40.76,,24.51,17-06-2026,https://www.mbenzin.cz/
50.0318001,15.6091008,Tomegas,,,,39.79,,41.44,,24.57,17-06-2026,https://www.mbenzin.cz/
49.2677595,13.9163293,Robin Oil,Čepro,24/7,,39.99,,41.21,,24.34,17-06-2026,https://www.mbenzin.cz/
48.9789373,17.3145761,Chemis,,"Mo-Sa 05:00-22:00; Su,PH 07:00-21:00",,39.53,,41.77,,24.46,17-06-2026,https://www.mbenzin.cz/
49.8707257,14.2704987,Benzina,,24/7,,39.34,,41.58,,24.23,17-06-2026,https://www.mbenzin.cz/
49.9542568,14.3780159,MOL,"MOL Česká republika, s.r.o.",24/7,,39.79,,41.4,,24.85,17-06-2026,https://www.mbenzin.cz/
50.1095768,14.6395044,Shell,,,,41.12,,42.29,,24.82,17-06-2026,https://www.mbenzin.cz/
49.3592091,15.9952681,Benzina,,,,39.06,,41.65,,24.46,17-06-2026,https://www.mbenzin.cz/
50.4338034,15.4082175,"Benzina - Jičín, Robousy","Unipetrol RPA, s.r.o. – Benzina",24/7,,39.96,,41.07,,24.16,17-06-2026,https://www.mbenzin.cz/
50.3977513,16.0528169,Benzina,"Benzina, s.r.o.",,,39.26,,41.84,,24.57,17-06-2026,https://www.mbenzin.cz/
49.6474548,17.9893677,Orlen,,05:00-22:00,,39.21,,41.52,,23.96,17-06-2026,https://www.mbenzin.cz/
49.2080242,16.6474198,"Prim Brno, Židenice",PETRA s.r.o.,06:00-22:00,,39.19,,40.72,,24.24,17-06-2026,https://www.mbenzin.cz/
50.9308863,14.5581734,RoBiN OIL Rumburk,RoBiN OIL s.r.o.,24/7,,39.56,,41.89,,24.6,17-06-2026,https://www.mbenzin.cz/
49.9529204,15.0407189,"KM-Prona, Zásmuky","KM - PRONA, a.s.",06:00-21:00,,38.69,,41.4,,24.24,17-06-2026,https://www.mbenzin.cz/
48.9690754,17.2039507,MOW,Šmída Group,Mo-Fr 06:00-20:00; Sa-Su 07:00-20:00,,39.78,,41.32,,24.16,17-06-2026,https://www.mbenzin.cz/
49.0763819,17.4829554,"Orlen - Uherské Hradiště, Sokolovská","Unipetrol RPA, s.r.o. – Benzina",24/7,,39.65,,41.74,,24.36,17-06-2026,https://www.mbenzin.cz/
50.9975863,14.2922521,Petrol Horní Poustevna,"G7, a.s.",06:00-22:00,,39.26,,40.58,,24.46,17-06-2026,https://www.mbenzin.cz/
49.7856948,13.7206327,RoBiN OIL Mýto,RoBiN OIL s.r.o.,24/7,,39.24,,41.67,,24.16,17-06-2026,https://www.mbenzin.cz/
50.6997812,15.4346411,Benzínová čerpací stanice Belda,,Mo-Su 05:30-21:30,,39.94,,41.76,,24.37,17-06-2026,https://www.mbenzin.cz/
50.6074556,15.323094,Shell,,,,40.4,,42.38,,24.43,17-06-2026,https://www.mbenzin.cz/
49.6577967,17.8321052,Benzina - Odry,"Unipetrol RPA, s.r.o. – Benzina",06:00-21:00,,39.88,,41.29,,23.95,17-06-2026,https://www.mbenzin.cz/
50.2865972,14.3124932,Podhořany,,,,39.35,,41.64,,24.43,17-06-2026,https://www.mbenzin.cz/
49.7810504,13.4101754,RoBiN OIL Bílá Hora,RoBiN OIL s.r.o.,24/7,,39.26,,41.73,,24.48,17-06-2026,https://www.mbenzin.cz/
49.1407869,14.1834687,Benzina,,Mo-Su 06:00-20:00,,39.08,,40.78,,24.42,17-06-2026,https://www.mbenzin.cz/
50.5732808,15.2638788,Kontakt Tatobity,"Kontakt - služby motoristům, spol. s r.o.","Mo-Fr 06:00-20:00, Sa-Su 07:00-20:00",,39.15,,40.63,,24.63,17-06-2026,https://www.mbenzin.cz/
50.1295034,14.112094,"MOL, Kladno - Milady Horákové","MOL Česká republika, s.r.o.",05:00-22:00,,39.81,,41.85,,24.37,17-06-2026,https://www.mbenzin.cz/
50.1265097,14.1206093,OMV,OMV Česká republika,24/7,,40.43,,42.95,,25.07,17-06-2026,https://www.mbenzin.cz/
50.1318552,14.1119873,"MOL, Kladno - Americká","MOL Česká republika, s.r.o.",24/7,,39.77,,42.73,,24.31,17-06-2026,https://www.mbenzin.cz/
49.1787102,16.2988244,Pents,,,,39.29,,41.37,,24.67,17-06-2026,https://www.mbenzin.cz/
49.1543563,15.0022894,"MOL, Jindřichův Hradec","MOL Česká republika, s.r.o.",05:00-22:00,,39.88,,41.76,,24.47,17-06-2026,https://www.mbenzin.cz/
48.7295702,14.4809617,"MOL, Kaplice I.","MOL Česká republika, s.r.o.",Mo-Su 05:00-22:00,,40.11,,42.27,,24.78,17-06-2026,https://www.mbenzin.cz/
50.1439649,14.1248878,OMV,OMV Česká republika,24/7,,40.9,,42.3,,24.44,17-06-2026,https://www.mbenzin.cz/
50.7746104,15.0280744,Globus,"Globus ČR, v.o.s.",07:00-21:00,,39.75,,41.8,,23.96,17-06-2026,https://www.mbenzin.cz/
50.1389056,14.1005217,Shell,,Mo-Su 06:00-22:00,,40.24,,42.68,,25.08,17-06-2026,https://www.mbenzin.cz/
50.1533548,14.104548,Prim Kladno,PETRA s.r.o.,06:00-22:00,,39.86,,41.37,,24.21,17-06-2026,https://www.mbenzin.cz/
50.1614658,14.1116981,RoBiN OIL Kladno - Švermov,RoBiN OIL s.r.o.,24/7,,39.27,,41.34,,24.45,17-06-2026,https://www.mbenzin.cz/
49.2097068,16.1436063,Benzina - Náměšť nad Oslavou,,Mo-Sa 00:00-24:00; Su 05:00-21:00,,39.69,,40.65,,24.6,17-06-2026,https://www.mbenzin.cz/
50.2135678,15.8265278,"HDB, s.r.o.",,,,39.86,,41.21,,24.69,17-06-2026,https://www.mbenzin.cz/
49.8137473,18.2979715,Prim Ostrava,PETRA s.r.o.,05:00-21:00,,39.88,,41.29,,24.66,17-06-2026,https://www.mbenzin.cz/
49.4791275,17.8183298,Benzina,,05:00-21:00,,39.75,,41.5,,24.26,17-06-2026,https://www.mbenzin.cz/
49.1841051,15.4407461,Benzina,,,,39.24,,41.86,,24.46,17-06-2026,https://www.mbenzin.cz/
49.1871711,15.4493116,"Benzina - Telč, Slavatovská","Unipetrol RPA, s.r.o. – Benzina",05:00-22:00,,39.16,,41.72,,24.49,17-06-2026,https://www.mbenzin.cz/
49.1466906,18.0212471,EuroOil Valašské Klobouky,"Čepro, a.s.",Mo-Su 06:00-21:00,,39.48,,41.75,,24.47,17-06-2026,https://www.mbenzin.cz/
50.34284,15.9044463,Orlen,Orlen Unipetrol RPA,24/7,,39.86,,40.57,,24.32,17-06-2026,https://www.mbenzin.cz/
50.6196013,15.6192238,"Kontakt, Vrchlabí","Kontakt - služby motoristům, spol. s r.o.",24/7,,39.36,,41.55,,24.57,17-06-2026,https://www.mbenzin.cz/
49.3999191,14.480245,,,,,38.87,,41.35,,23.99,17-06-2026,https://www.mbenzin.cz/
50.7154013,15.1605938,Autoslužby Pavlišta,Autoslužby Pavlišta s.r.o.,Mo-Fr 05:00-22:00;Su-Sa 06:00-22:00,,39.22,,41.33,,24.35,17-06-2026,https://www.mbenzin.cz/
49.408446,14.6884319,Comett,,,,39.53,,40.82,,24.38,17-06-2026,https://www.mbenzin.cz/
49.2850377,17.682262,,,Mo-Fr 7:30-18:00; Sa 7:30-15:00,,39.17,,41.85,,24.62,17-06-2026,https://www.mbenzin.cz/
50.4223773,12.7308446,one1 Potůčky II,,,,39.92,,40.65,,24.7,17-06-2026,https://www.mbenzin.cz/
50.07814,14.64814,OMV,"OMV Česká republika, s.r.o.",24/7,,40.89,,42.84,,24.65,17-06-2026,https://www.mbenzin.cz/
49.8077018,18.3402102,LPG,,,,38.84,,40.9,,24.47,17-06-2026,https://www.mbenzin.cz/
49.8748052,16.8916659,Shell,,Mo-Su 05:30-22:30,,40.15,,42.01,,24.58,17-06-2026,https://www.mbenzin.cz/
49.5602219,17.3096353,"Avia Olomouc, Olympia",,07:00-21:00,,38.33,,40.64,,23.71,17-06-2026,https://www.mbenzin.cz/
49.3994327,14.6411488,Oktan Tábor - Horky,"OKTANnew cz, s.r.o.",Mo-Fr 06:00-20:00; Sa 07:00-20:00; Su 08:00-20:00,,39.46,,40.85,,24.69,17-06-2026,https://www.mbenzin.cz/
49.7578867,18.031911,,,24/7,,38.92,,41.03,,24.26,17-06-2026,https://www.mbenzin.cz/
49.399051,15.8806338,ArmEx Měřín,ARMEX Oil s.r.o.,24/7,,39.66,,41.32,,24.47,17-06-2026,https://www.mbenzin.cz/
50.7534097,15.0704672,Kontakt Liberec Rochlice,"Kontakt - služby motoristům, spol. s r.o.",Mo-Fr 06:00-22:00; Sa-Su 7:00-22:00,,39.94,,41.45,,24.08,17-06-2026,https://www.mbenzin.cz/
50.7593052,15.053308,"Shell Košická, Liberec","Shell Czech Republic, a.s.",24/7,,40.3,,42.29,,24.35,17-06-2026,https://www.mbenzin.cz/
49.0953268,16.6009158,HUNSGAS,,"Mo-Fr 05:00-21:00; Sa,Su 06:00-20:00",,39.77,,41.57,,23.96,17-06-2026,https://www.mbenzin.cz/
48.9885068,16.536085,Orlen,"Orlen Unipetrol RPA s.r.o. - Benzina, odštěpný závod",Mo-Su 05:00-22:00,,39.76,,41.3,,24.63,17-06-2026,https://www.mbenzin.cz/
48.853247,16.7083579,Čerpací stanice Milovice,,Mo-Su 06:00-20:00,,38.83,,40.6,,24.08,17-06-2026,https://www.mbenzin.cz/
49.3151781,15.6684443,Benzina - Brtnice,"Unipetrol RPA, s.r.o. – Benzina",06:00-20:00,,39.29,,41.68,,24.57,17-06-2026,https://www.mbenzin.cz/
48.7738996,14.9793733,,,,,38.85,,41.51,,23.97,17-06-2026,https://www.mbenzin.cz/
50.172761,13.7410718,Tank Ono,Tank Ono,24/7,,37.3,,39.48,,23.26,17-06-2026,https://www.mbenzin.cz/
49.9931376,17.8129463,"HUNSGAS, s.r.o.",,,,39.61,,41.41,,24.45,17-06-2026,https://www.mbenzin.cz/
50.7331326,15.0508865,Makro Liberec,MAKRO Cash & Carry ČR s.r.o.,Mo-Sa 06:00-21:00; Su 07:00-21:00,,39.78,,40.61,,24.48,17-06-2026,https://www.mbenzin.cz/
49.1878218,15.8901011,,,,,39.96,,40.86,,24.54,17-06-2026,https://www.mbenzin.cz/
49.7256994,13.3870235,"MOL, Plzeň - Doudlevce","MOL Česká republika, s.r.o.",24/7,,40.47,,42.68,,24.68,17-06-2026,https://www.mbenzin.cz/
48.9600321,16.4307407,,,,,39.35,,40.99,,24.21,17-06-2026,https://www.mbenzin.cz/
48.7571387,16.242305,,Swiss tank,,,39.81,,41.19,,24.05,17-06-2026,https://www.mbenzin.cz/
48.9803026,14.5017514,MOL,,24/7,,40.56,,41.86,,24.61,17-06-2026,https://www.mbenzin.cz/
48.8732838,17.1170943,Orlen,"Orlen Unipetrol RPA s.r.o. - Benzina, odštěpný závod",Mo-Su 05:00-22:00,,39.68,,40.68,,24.42,17-06-2026,https://www.mbenzin.cz/
49.3963543,14.6859459,Tesco,Tesco Stores ČR,24/7,,38.94,,40.51,,24.21,17-06-2026,https://www.mbenzin.cz/
49.2542444,13.5514815,Orlen Sušice,"Unipetrol RPA, s.r.o. – Benzina",05:00-21:00,,39.99,,41.59,,24.21,17-06-2026,https://www.mbenzin.cz/
50.6680627,14.7267253,Benzina,"Unipetrol RPA, s.r.o. – Benzina",05:00-22:00,,38.81,,41.32,,24.32,17-06-2026,https://www.mbenzin.cz/
50.358751,12.7897408,Free1 GAS Pernink,TOP TANK s.r.o.,off,,39.68,,40.58,,24.2,17-06-2026,https://www.mbenzin.cz/
49.7464877,18.4899527,EuroOil Horní Těrlicko,"Čepro, a.s.",Mo-Su 06:00-20:00,,39.06,,41.13,,24.69,17-06-2026,https://www.mbenzin.cz/
50.1649994,16.4541105,AUKO,,,,39.34,,40.98,,24.37,17-06-2026,https://www.mbenzin.cz/
49.2172794,16.0730646,G.A.S. Petroleum,,Mo-Su 05:30-22:00,,39.32,,40.59,,24.36,17-06-2026,https://www.mbenzin.cz/
49.7886278,18.4068247,Shell,,,,40.01,,43.11,,24.73,17-06-2026,https://www.mbenzin.cz/
49.1489955,16.916145,Eurobit,Eurobit,Mo-Su 05:00-22:00,,38.69,,40.81,,23.76,17-06-2026,https://www.mbenzin.cz/
49.4922771,16.6433813,OMV,OMV,24/7,,40.85,,42.69,,24.42,17-06-2026,https://www.mbenzin.cz/
50.3502911,12.4751007,one1 Kraslice,,05:00-23:00,,39.35,,40.53,,24.0,17-06-2026,https://www.mbenzin.cz/
50.3523308,12.4712495,Free One Shop,TOP TANK s.r.o.,,,39.08,,41.16,,24.26,17-06-2026,https://www.mbenzin.cz/
50.1411993,14.0633336,Olymp oil,Olymp oil,,,39.37,,40.66,,23.97,17-06-2026,https://www.mbenzin.cz/
50.1056022,14.0706537,Orlen,"Orlen Unipetrol RPA s.r.o. - Benzina, odštěpný závod",24/7,,39.44,,41.71,,24.45,17-06-2026,https://www.mbenzin.cz/
50.1050066,14.0696008,Orlen,"Orlen Unipetrol RPA s.r.o. - Benzina, odštěpný závod",Mo-Su 05:00-23:00,,39.81,,41.78,,24.62,17-06-2026,https://www.mbenzin.cz/
50.0873978,14.1209481,RoBiN OIL Unhošť,RoBiN OIL s.r.o.,24/7,,39.32,,40.89,,24.53,17-06-2026,https://www.mbenzin.cz/
50.0831525,14.2368152,"KM-Prona, Hostivice","KM - PRONA, a.s.",05:00-22:00,,38.58,,40.44,,24.08,17-06-2026,https://www.mbenzin.cz/
50.0857778,14.2209158,,OR,,,39.86,,41.3,,24.63,17-06-2026,https://www.mbenzin.cz/
49.903694,12.9788259,,AGP Domažlice,,,39.96,,41.19,,24.49,17-06-2026,https://www.mbenzin.cz/
50.1329466,14.9736722,Orlen,,05:00-22:00,,39.76,,41.64,,23.95,17-06-2026,https://www.mbenzin.cz/
50.0610873,14.5329487,Auto Tukas,,,,39.96,,40.55,,24.52,17-06-2026,https://www.mbenzin.cz/
49.0542652,14.2080074,EKOS Netolice,,,,39.7,,40.91,,23.98,17-06-2026,https://www.mbenzin.cz/
48.8101145,16.8922813,Shell,Shell Czech Republic,24/7,,41.09,,42.13,,25.07,17-06-2026,https://www.mbenzin.cz/
49.9643916,14.3813857,Profi Auto CZ,PROFI AUTO CZ a.s.,,,38.92,,41.57,,24.08,17-06-2026,https://www.mbenzin.cz/
49.6767085,18.6667724,OMV,OMV Česká republika,Mo-Su 05:00-23:00,,40.82,,43.34,,24.65,17-06-2026,https://www.mbenzin.cz/
49.6536449,14.4255891,MOL,,Mo-Su 05:00-22:00,,40.43,,42.01,,24.66,17-06-2026,https://www.mbenzin.cz/
49.6307507,18.7208885,"MOL, Bystřice nad Olší","MOL Česká republika, s.r.o.",24/7,,40.41,,41.44,,24.69,17-06-2026,https://www.mbenzin.cz/
50.79765,14.404547,Orlen,"Orlen Unipetrol RPA s.r.o. - Benzina, odštěpný závod",Mo-Su 05:00-22:00,,39.87,,41.65,,24.28,17-06-2026,https://www.mbenzin.cz/
49.2877003,16.2219338,Benzina,,,,39.97,,41.32,,24.5,17-06-2026,https://www.mbenzin.cz/
49.2968393,16.2186974,BDS,,,,38.87,,41.23,,24.03,17-06-2026,https://www.mbenzin.cz/
49.8523556,15.6532389,"K&P čerpací stanice, s. r. o.",,closed,,39.76,,40.92,,24.66,17-06-2026,https://www.mbenzin.cz/
48.9415576,17.4803739,Hunsgas,,,,39.02,,41.69,,24.41,17-06-2026,https://www.mbenzin.cz/
49.044761,16.3025686,EuroOil Moravský Krumlov,"Čepro, a.s.",Mo-Su 06:00-21:00,,39.55,,41.56,,24.41,17-06-2026,https://www.mbenzin.cz/
48.8258903,16.3989869,Orlen,"Orlen Unipetrol RPA s.r.o. - Benzina, odštěpný závod",Mo-Su 05:00-22:00,,39.27,,40.96,,24.01,17-06-2026,https://www.mbenzin.cz/
48.9184665,16.5563359,"MOL, Iváň","MOL Česká republika, s.r.o.",05:00-22:00,,40.15,,41.97,,24.3,17-06-2026,https://www.mbenzin.cz/
48.8136618,16.3961676,MOL,,,,40.19,,42.49,,24.75,17-06-2026,https://www.mbenzin.cz/
48.9292043,16.3530391,Avia Miroslav,,06:00-22:00,,38.52,,41.11,,23.84,17-06-2026,https://www.mbenzin.cz/
49.2927182,13.9827221,Tank Ono - ČS Kbelnice,Tank ONO s.r.o.,24/7,,37.15,,39.03,,23.12,17-06-2026,https://www.mbenzin.cz/
49.5232264,14.0720618,Slovnaft,"MOL Česká republika, s.r.o.",24/7,,39.9,,41.82,,24.67,17-06-2026,https://www.mbenzin.cz/
49.6931649,14.0778469,,VS petrol,,,39.99,,41.48,,24.52,17-06-2026,https://www.mbenzin.cz/
50.0355633,16.5047476,EuroOil Letohrad,"Čepro, a.s.",Mo-Su 06:00-21:00,,39.99,,41.88,,24.21,17-06-2026,https://www.mbenzin.cz/
50.0687002,17.0928353,Avia Loučná nad Desnou,Energotis,24/7,,38.34,,40.46,,24.37,17-06-2026,https://www.mbenzin.cz/
50.7752615,14.7709552,Orlen,"Orlen Unipetrol RPA s.r.o. - Benzina, odštěpný závod",Mo-Su 05:00-21:00,,39.67,,40.87,,24.63,17-06-2026,https://www.mbenzin.cz/
50.4926845,15.0351236,AGP Kněžmost,AGROPODNIK DOMAŽLICE a. s.,"Mo-Fr 05:30-20:00; Sa,Su 07:00-19:00",,38.95,,40.86,,24.55,17-06-2026,https://www.mbenzin.cz/
49.1751844,16.5831809,Pneuservis Bílý & syn s.r.o.,,,,39.85,,41.18,,24.33,17-06-2026,https://www.mbenzin.cz/
48.7950107,14.7870434,MOL,MOL Česká republika,Mo-Su 06:00-20:00,,39.61,,42.34,,24.37,17-06-2026,https://www.mbenzin.cz/
48.9244141,14.5307148,,,,,39.58,,41.44,,23.93,17-06-2026,https://www.mbenzin.cz/
48.8458394,14.628431,Orlen,"Orlen Unipetrol RPA s.r.o. - Benzina, odštěpný závod",Mo-Su 05:00-21:00,,39.2,,40.74,,24.28,17-06-2026,https://www.mbenzin.cz/
49.3320851,16.438425,"Eurobit, Tišnov",EUROBIT - čerpací stanice s.r.o.,05:00-22:00,,38.57,,40.35,,23.75,17-06-2026,https://www.mbenzin.cz/
49.9645823,12.6941655,MOL,,,,40.34,,41.97,,24.85,17-06-2026,https://www.mbenzin.cz/
49.9730214,16.9762593,MOL,,Mo-Su 05:30-22:00,,40.2,,42.56,,24.63,17-06-2026,https://www.mbenzin.cz/
49.1766771,16.5750871,,,,,39.12,,41.05,,24.1,17-06-2026,https://www.mbenzin.cz/
49.7761901,16.9320775,"Benzina - Mohelnice, 1. máje","Unipetrol RPA, s.r.o. – Benzina",06:00-20:00,,39.31,,41.09,,24.27,17-06-2026,https://www.mbenzin.cz/
49.9840883,14.3676491,PR,,24/7,,39.23,,41.44,,24.29,17-06-2026,https://www.mbenzin.cz/
49.9103668,14.5850982,"KM-Prona, Kamenice - Nová Hospoda","KM - PRONA, a.s.",06:00-22:00,,38.8,,41.07,,24.31,17-06-2026,https://www.mbenzin.cz/
50.0377544,14.5876129,Petronal Praha,PETRONAL s.r.o.,06:00-22:00,,39.52,,40.75,,24.11,17-06-2026,https://www.mbenzin.cz/
49.0059793,14.7473524,Shell,,,,40.67,,43.08,,24.41,17-06-2026,https://www.mbenzin.cz/
49.2957577,16.6643298,EuroOil Adamov,"Čepro, a.s.",Mo-Su 06:00-18:00,,39.71,,40.78,,24.4,17-06-2026,https://www.mbenzin.cz/
49.6654164,12.5461056,ArmEx Rozvadov,ARMEX Oil s.r.o.,06:00-22:00,,39.43,,41.11,,24.34,17-06-2026,https://www.mbenzin.cz/
49.6555916,12.5259319,Free1 GAS Rozvadov,TOP TANK s.r.o.,off,,39.97,,41.33,,24.04,17-06-2026,https://www.mbenzin.cz/
49.9562855,16.9682729,"MOL, Šumperk - Jesenická","MOL Česká republika, s.r.o.",05:00-22:00,,40.52,,42.7,,24.3,17-06-2026,https://www.mbenzin.cz/
49.9539239,16.9612187,Benzina - Šumperk,"Unipetrol RPA, s.r.o. – Benzina",06:00-20:00,,39.1,,41.88,,24.02,17-06-2026,https://www.mbenzin.cz/
49.9599542,16.9758171,Shell,"Shell Czech Republic, a.s.",24/7,,40.01,,42.37,,24.9,17-06-2026,https://www.mbenzin.cz/
50.1021185,13.7395456,Benzina,"Unipetrol RPA, s.r.o. – Benzina",24/7,,39.8,,41.34,,24.67,17-06-2026,https://www.mbenzin.cz/
50.0605759,12.9778223,Orlen,"Orlen Unipetrol RPA s.r.o. - Benzina, odštěpný závod",Mo-Su 05:00-22:00,,39.88,,41.17,,24.35,17-06-2026,https://www.mbenzin.cz/
50.1057254,13.7510848,RoBiN OIL Rakovník,RoBiN OIL s.r.o.,24/7,,39.41,,40.62,,23.99,17-06-2026,https://www.mbenzin.cz/
49.9637896,16.9843566,VENA-TRADE,"VENA-TRADE, s.r.o.","Mo-Fr 06:00-20:00; Sa,Su 08:00-16:00",,39.38,,40.9,,24.37,17-06-2026,https://www.mbenzin.cz/
50.3856749,13.260146,Shell,,24/7,,40.67,,43.11,,24.33,17-06-2026,https://www.mbenzin.cz/
49.1682204,16.7144973,Shell,,"PH,Mo-Su 06:00-22:00",,40.5,,42.95,,24.51,17-06-2026,https://www.mbenzin.cz/
50.0929904,14.3215654,,"Pražská plynárenská, a.s.",,,39.48,,41.68,,24.24,17-06-2026,https://www.mbenzin.cz/
49.8526603,18.2829478,EuroOil,"Čepro, a.s.",Mo-Su 06:00-20:00,,38.98,,41.36,,24.33,17-06-2026,https://www.mbenzin.cz/
50.110368,14.5765581,"MOL, Černý most","MOL Česká republika, s.r.o.",Mo-Su 06:00-22:00,,40.58,,42.58,,24.46,17-06-2026,https://www.mbenzin.cz/
50.7125029,15.316344,Q3 Petrol,,05:00-23:00,,39.79,,41.27,,23.95,17-06-2026,https://www.mbenzin.cz/
50.1332594,14.4535871,RoBiN OIL Praha - Kobylisy,RoBiN OIL s.r.o.,24/7,,39.74,,41.84,,24.63,17-06-2026,https://www.mbenzin.cz/
50.3627945,12.9274231,Pasoil,PASOIL s.r.o.,"PH,Mo-Su 06:00-22:00",,38.99,,41.42,,24.68,17-06-2026,https://www.mbenzin.cz/
50.4294218,12.7358109,one1 Potůčky,TOP TANK s.r.o.,24/7,,39.67,,40.94,,24.42,17-06-2026,https://www.mbenzin.cz/
49.8540487,14.3998995,MOL,"MOL Česká republika, s.r.o.",Mo-Su 06:00-22:00,,39.97,,42.45,,24.6,17-06-2026,https://www.mbenzin.cz/
49.5851298,17.2267582,Benzina,,24/7,,39.6,,41.15,,24.41,17-06-2026,https://www.mbenzin.cz/
50.082941,17.7283379,EuroOil Krnov,"Čepro, a.s.",Mo-Su 06:00-20:00,,39.01,,41.34,,24.22,17-06-2026,https://www.mbenzin.cz/
49.9794049,14.5097073,AGRO Jesenice,AGRO Jesenice u Prahy a.s.,,,38.96,,41.71,,23.92,17-06-2026,https://www.mbenzin.cz/
49.9575561,16.9722361,EuroOil Šumperk,"Čepro, a.s.",Mo-Su 06:00-21:00,,39.34,,40.98,,23.9,17-06-2026,https://www.mbenzin.cz/
49.8313844,18.2821745,"Eurobit, Ostrava - Místecká",EUROBIT - čerpací stanice s.r.o.,24/7,,39.27,,41.04,,23.68,17-06-2026,https://www.mbenzin.cz/
49.8275502,18.2816808,Orlen,"Orlen Unipetrol RPA s.r.o. - Benzina, odštěpný závod",24/7,,39.0,,41.18,,24.17,17-06-2026,https://www.mbenzin.cz/
49.9219674,14.633782,MOL Velké Popovice,"MOL Česká republika, s.r.o.",Mo-Fr 6:00-21:00; Sa-Su 7:00-21:00,,39.62,,41.63,,24.55,17-06-2026,https://www.mbenzin.cz/
50.4151501,16.1682925,Orlen,,24/7,,39.12,,41.75,,24.4,17-06-2026,https://www.mbenzin.cz/
49.5843715,18.3593779,Orlen,"Orlen Unipetrol RPA s.r.o. - Benzina, odštěpný závod",Mo-Su 05:00-22:00,,39.9,,41.05,,23.98,17-06-2026,https://www.mbenzin.cz/
49.8242696,18.3221738,EUROBIT Oil,,24/7,,39.05,,40.24,,23.83,17-06-2026,https://www.mbenzin.cz/
49.2090467,15.6136107,MOL,,,,40.31,,41.79,,24.37,17-06-2026,https://www.mbenzin.cz/
49.1654547,16.6298124,"Benzina - Brno, Kaštanová","Unipetrol RPA, s.r.o. – Benzina",24/7,,39.1,,41.65,,24.43,17-06-2026,https://www.mbenzin.cz/
49.2299551,17.5202431,RoBiN OIL Tlumačov,RoBiN OIL s.r.o.,24/7,,39.43,,40.94,,24.64,17-06-2026,https://www.mbenzin.cz/
49.8990675,18.2058801,Čerpací stanice shell,,24/7,,41.02,,42.03,,24.32,17-06-2026,https://www.mbenzin.cz/
49.8189597,14.5104123,"VS Petrol, Netvořice",VS PETROL s.r.o.,"Jul-Aug Mo-Fr 06:00-20:00; Sa,Su 07:00-20:00; Sep-Jun Mo-Fr 06:00-21:00; Sep-Jun Sa,Su 07:00-21:00",,39.26,,41.47,,24.29,17-06-2026,https://www.mbenzin.cz/
49.95244,12.70303,OMV,"OMV Česká republika, s.r.o.",Mo-Su 05:00-23:00,,41.15,,42.85,,24.96,17-06-2026,https://www.mbenzin.cz/
49.9500488,12.7043401,,,,,39.59,,40.77,,24.12,17-06-2026,https://www.mbenzin.cz/
49.9574828,12.666273,ArmEx Velká Hleďsebe,ARMEX Oil s.r.o.,07:00-20:00,,39.41,,40.59,,24.67,17-06-2026,https://www.mbenzin.cz/
49.8348627,18.2496106,"KM-Prona, Ostrava","KM - PRONA, a.s.",24/7,,38.78,,40.21,,23.95,17-06-2026,https://www.mbenzin.cz/
49.8373442,18.2483533,"MOL, Ostrava - Mariánskohorská","MOL Česká republika, s.r.o.",05:00-22:00,,39.8,,41.54,,24.37,17-06-2026,https://www.mbenzin.cz/
49.8588711,18.2694388,Orlen,"Orlen Unipetrol RPA s.r.o. - Benzina, odštěpný závod",Mo-Su 05:00-21:00,,39.16,,40.86,,23.94,17-06-2026,https://www.mbenzin.cz/
49.8564266,18.2725169,"MOL, Ostrava - Hlučínská","MOL Česká republika, s.r.o.",05:00-22:00,,40.69,,41.83,,24.87,17-06-2026,https://www.mbenzin.cz/
49.82442,18.2500677,"Baltic Oil, Ostrava",BALTIC OIL s.r.o.,Mo-Fr 08:00-17:00,,39.23,,41.06,,24.57,17-06-2026,https://www.mbenzin.cz/
49.8975567,18.204359,PIER-PAM,,,,39.53,,41.0,,24.48,17-06-2026,https://www.mbenzin.cz/
49.8901373,18.1780705,Tomegas,Tomegas,Mo-Su 06:00-18:00,,39.34,,41.82,,24.53,17-06-2026,https://www.mbenzin.cz/
49.8460908,18.1489354,Globus,"Globus ČR, v.o.s.",24/7,,39.03,,41.39,,24.22,17-06-2026,https://www.mbenzin.cz/
48.9254803,17.1598063,,,,,39.89,,41.35,,24.54,17-06-2026,https://www.mbenzin.cz/
49.0061084,17.1055869,Orlen,"Orlen Unipetrol RPA s.r.o. - Benzina, odštěpný závod",Mo-Su 05:00-22:00,,38.98,,41.14,,24.4,17-06-2026,https://www.mbenzin.cz/
49.3130745,15.0815274,"MOL, Kamenice nad Lipou","MOL Česká republika, s.r.o.",24/7,,39.68,,41.67,,24.12,17-06-2026,https://www.mbenzin.cz/
49.238251,15.0619924,,,,,39.01,,41.47,,24.01,17-06-2026,https://www.mbenzin.cz/
50.7221595,14.7064702,,,,,39.62,,40.58,,23.97,17-06-2026,https://www.mbenzin.cz/
50.4105528,14.2431216,"Benzina - Roudnice n. Labem, Žižkova","Unipetrol RPA, s.r.o. – Benzina",24/7,,39.98,,41.83,,24.5,17-06-2026,https://www.mbenzin.cz/
48.9076658,17.0172892,Chemis,,,,39.33,,40.56,,24.21,17-06-2026,https://www.mbenzin.cz/
49.0903899,17.5109526,,,,,39.22,,40.63,,24.09,17-06-2026,https://www.mbenzin.cz/
50.1494438,13.052169,Orlen,"Orlen Unipetrol RPA s.r.o. - Benzina, odštěpný závod",24/7,,38.98,,41.12,,24.43,17-06-2026,https://www.mbenzin.cz/
50.2363738,12.8983079,MOL,,,,40.6,,42.35,,24.81,17-06-2026,https://www.mbenzin.cz/
50.8386017,15.041018,Orlen,,05:00-21:00,,39.19,,41.14,,24.32,17-06-2026,https://www.mbenzin.cz/
50.7419155,15.1008663,EuroOil Vratislavice nad Nisou,"Čepro, a.s.",Mo-Su 05:00-21:00,,38.96,,41.75,,24.35,17-06-2026,https://www.mbenzin.cz/
50.4251329,16.1624516,Shell,,,,40.52,,42.77,,24.88,17-06-2026,https://www.mbenzin.cz/
49.4844997,15.6981789,‎JVU spol. s r.o. - čerpací stanice,,,,39.74,,41.01,,24.59,17-06-2026,https://www.mbenzin.cz/
48.8545532,16.0694276,Sileka,,,,38.89,,41.16,,24.64,17-06-2026,https://www.mbenzin.cz/
49.8493215,15.9926458,RoBiN OIL Skuteč,RoBiN OIL s.r.o.,24/7,,39.37,,40.95,,24.46,17-06-2026,https://www.mbenzin.cz/
50.7711241,14.7623692,"MOL, Jablonné v Podještědí","MOL Česká republika, s.r.o.",05:30-22:00,,40.57,,41.72,,24.83,17-06-2026,https://www.mbenzin.cz/
49.0414004,17.5921125,Orlen - Drslavice,,24/7,,39.19,,41.23,,24.68,17-06-2026,https://www.mbenzin.cz/
49.0239052,17.6400776,Tempex,,,,39.73,,40.9,,23.98,17-06-2026,https://www.mbenzin.cz/
50.0037313,12.6277514,,,,,39.89,,41.83,,24.47,17-06-2026,https://www.mbenzin.cz/
50.0256425,14.4980582,Shell,,Mo-Su 06:00-22:00,,40.36,,42.59,,24.95,17-06-2026,https://www.mbenzin.cz/
50.2136382,17.2000751,MOL,"MOL Česká republika, s.r.o.",24/7,,40.65,,42.19,,24.73,17-06-2026,https://www.mbenzin.cz/
50.226287,17.1181169,,,,,39.19,,40.65,,24.63,17-06-2026,https://www.mbenzin.cz/
48.8683295,16.0334081,OMV,OMV Česká republika,24/7,,40.06,,43.07,,25.06,17-06-2026,https://www.mbenzin.cz/
49.8244641,18.1600585,MOL,,24/7,,40.0,,42.4,,24.51,17-06-2026,https://www.mbenzin.cz/
50.0770603,14.4017804,MOL Praha 5 - Drtinova,"MOL Česká republika, s.r.o.",Mo-Su 06:00-22:00,,40.64,,42.67,,24.23,17-06-2026,https://www.mbenzin.cz/
49.4814638,13.5863702,Orlen,Orlen Unipetrol RPA,24/7,,39.45,,41.6,,23.94,17-06-2026,https://www.mbenzin.cz/
49.8070458,12.6432277,Orlen,"Orlen Unipetrol RPA s.r.o. - Benzina, odštěpný závod",Mo-Su 05:00-23:00,,39.52,,41.51,,24.53,17-06-2026,https://www.mbenzin.cz/
49.8899307,12.6575718,MIA Oil,,,,38.91,,40.93,,24.56,17-06-2026,https://www.mbenzin.cz/
49.5145849,15.4170391,OMV,"OMV Česká republika, s.r.o.",24/7,,41.06,,43.1,,24.62,17-06-2026,https://www.mbenzin.cz/
50.3307689,16.1465108,,,,,39.6,,41.62,,23.92,17-06-2026,https://www.mbenzin.cz/
50.046916,14.9961475,"KM-Prona, Vrbčany","KM - PRONA, a.s.",24/7,,39.01,,40.35,,23.82,17-06-2026,https://www.mbenzin.cz/
50.6777269,14.0124268,"Zaris, Ústí nad Labem",Zaris s.r.o.,05:00-22:00,,39.99,,40.67,,24.39,17-06-2026,https://www.mbenzin.cz/
50.4714916,16.1063621,,,,,39.33,,40.56,,24.3,17-06-2026,https://www.mbenzin.cz/
49.7698653,18.4493339,"MOL, Havířov","MOL Česká republika, s.r.o.",05:00-22:00,,40.37,,42.15,,24.82,17-06-2026,https://www.mbenzin.cz/
49.4470286,15.2322119,Shell,,24/7,,40.88,,42.04,,24.86,17-06-2026,https://www.mbenzin.cz/
49.4367562,15.215953,EuroOil Pelhřimov,"Čepro, a.s.",Mo-Su 05:00-22:00,,39.03,,41.22,,24.19,17-06-2026,https://www.mbenzin.cz/
49.4187171,15.2228154,,,,,39.9,,40.95,,24.11,17-06-2026,https://www.mbenzin.cz/
49.4384747,15.212782,"MOL, Pelhřimov","MOL Česká republika, s.r.o.",05:00-23:00,,39.84,,41.93,,24.36,17-06-2026,https://www.mbenzin.cz/
49.4156582,15.2218083,Benzina - PELHŘIMOV,,Mo-Su 05:00-23:00,,39.57,,40.58,,24.64,17-06-2026,https://www.mbenzin.cz/
50.2183999,12.809191,Globus,"Globus ČR, v.o.s.",07:00-21:00,,39.86,,41.34,,24.28,17-06-2026,https://www.mbenzin.cz/
50.2270532,12.8461555,"OMV KV, Západní","OMV Česká republika, s.r.o.",24/7,,40.38,,43.17,,24.97,17-06-2026,https://www.mbenzin.cz/
49.3006095,15.4824723,Orlen,Orlen Unipetrol RPA,24/7,,39.53,,41.81,,24.59,17-06-2026,https://www.mbenzin.cz/
49.2985949,15.4833385,EuroOil,Čepro,Mar-Oct 06:00-21:00; Nov-Feb 06:00-20:00,,39.73,,41.02,,24.22,17-06-2026,https://www.mbenzin.cz/
50.0641057,14.5040663,Orlen,,24/7,,39.22,,41.35,,24.47,17-06-2026,https://www.mbenzin.cz/
48.94264,16.9861343,Orlen,"Orlen Unipetrol RPA s.r.o. - Benzina, odštěpný závod",Mo-Su 06:00-21:00,,39.73,,40.97,,24.32,17-06-2026,https://www.mbenzin.cz/
50.1167422,14.6221646,Martin Oil,MARTIN Oil s.r.o.,05:00-22:00,,39.4,,41.43,,24.47,17-06-2026,https://www.mbenzin.cz/
49.1839902,16.371595,Shell,,24/7,,40.44,,42.12,,24.58,17-06-2026,https://www.mbenzin.cz/
49.8076867,18.2710027,"MOL, Ostrava - Rudná I.","MOL Česká republika, s.r.o.",24/7,,40.56,,42.72,,24.8,17-06-2026,https://www.mbenzin.cz/
49.2144434,17.5865471,Jiří Matouš - MAT Servis,,Mo-Fr 7:00-17:00;Sa-Su 9:00-17:00,,39.39,,41.88,,24.48,17-06-2026,https://www.mbenzin.cz/
49.9562971,15.7992947,Mercia,Mercia s.r.o.,,,39.53,,41.54,,24.44,17-06-2026,https://www.mbenzin.cz/
50.0863391,15.6653542,EuroOil Lázně Bohdaneč,"Čepro, a.s.",Mo-Su 05:00-21:00,,39.15,,41.26,,24.49,17-06-2026,https://www.mbenzin.cz/
50.0353588,15.57401,MOL Přelouč,"MOL Česká republika, s.r.o.",24/7,,40.12,,42.18,,24.2,17-06-2026,https://www.mbenzin.cz/
50.520458,14.0729152,,,,,38.99,,40.58,,24.49,17-06-2026,https://www.mbenzin.cz/
50.1877905,15.8322523,"MOL, Hradec Králové - Hradecká","MOL Česká republika, s.r.o.",24/7,,40.12,,42.0,,24.35,17-06-2026,https://www.mbenzin.cz/
49.449405,16.5462513,Silmet Lysice,SILMET Příbram a.s.,,,39.02,,40.74,,24.52,17-06-2026,https://www.mbenzin.cz/
49.6132201,16.6847343,Avia Velké Opatovice,Pento,,,39.23,,40.78,,24.36,17-06-2026,https://www.mbenzin.cz/
50.1140751,17.39264,Oil Team Vrbno p. Pradědem,oil TEAM a.s.,Mo-Fr 05:00-19:00; Sa-Su 07:00-19:00,,39.25,,41.66,,24.38,17-06-2026,https://www.mbenzin.cz/
48.9739045,17.247974,Orlen,Orlen,Mo-Su 05:00-22:00,,39.47,,41.32,,24.3,17-06-2026,https://www.mbenzin.cz/
50.7440827,15.1562786,MOL Jablonec nad Nisou,"MOL Česká republika, s.r.o.",Mo-Su 05:00-22:00,,40.36,,41.42,,24.49,17-06-2026,https://www.mbenzin.cz/
50.1290596,14.5442869,OMV,"OMV Česká republika, s.r.o.",24/7,,40.78,,42.26,,24.68,17-06-2026,https://www.mbenzin.cz/
48.7674257,16.9864484,Em Al,,,,39.85,,41.27,,24.33,17-06-2026,https://www.mbenzin.cz/
49.1727227,13.8925782,Orlen,"Orlen Unipetrol RPA s.r.o. - Benzina, odštěpný závod",Mo-Su 05:00-23:00,,39.49,,40.84,,23.97,17-06-2026,https://www.mbenzin.cz/
49.17257,13.8933025,,,,,39.38,,41.23,,24.59,17-06-2026,https://www.mbenzin.cz/
50.0716013,14.7729793,Trilobit,Trilobit Real,05:00-23:00,,39.73,,41.63,,24.57,17-06-2026,https://www.mbenzin.cz/
50.0712607,14.7741732,LPG,Trilobit Real,,,39.06,,40.62,,24.23,17-06-2026,https://www.mbenzin.cz/
49.2723022,13.8394148,Benzina - Katovice,"Unipetrol RPA, s.r.o. – Benzina",05:00-23:00,,39.02,,41.48,,23.99,17-06-2026,https://www.mbenzin.cz/
50.3200719,14.9395731,"KM-Prona, Luštěnice","KM - PRONA, a.s.",08:00-20:00,,39.03,,41.11,,24.22,17-06-2026,https://www.mbenzin.cz/
49.2523042,13.9132188,Benzina Volyňská,"BENZINA, s.r.o.",5:00-23:00,,38.98,,40.68,,24.3,17-06-2026,https://www.mbenzin.cz/
50.084893,12.4021223,EuroWAG,,24/7,,39.04,,40.77,,24.47,17-06-2026,https://www.mbenzin.cz/
50.3616146,14.9630968,AGP Dobrovice,AGROPODNIK DOMAŽLICE a. s.,Mo-Fr 05:00-20:00; Sa-Su 07:00-17:00,,39.53,,40.85,,23.94,17-06-2026,https://www.mbenzin.cz/
49.966485,14.6683509,Avia Světice,,,,39.29,,40.86,,23.66,17-06-2026,https://www.mbenzin.cz/
49.4858876,14.5282119,,,,,39.32,,41.47,,23.92,17-06-2026,https://www.mbenzin.cz/
50.8968474,15.1443363,EuroOil Raspenava,"Čepro, a.s.",Mo-Su 05:00-20:00,,39.11,,40.6,,24.65,17-06-2026,https://www.mbenzin.cz/
49.9422022,16.9318174,Vena-Trade,,Mo-Fr 05:00-20:00; Sa 06:00-20:00; Su 07:00-20:00,,39.64,,41.34,,24.17,17-06-2026,https://www.mbenzin.cz/
50.106394,14.5448031,Shell,,24/7,,40.45,,43.31,,24.77,17-06-2026,https://www.mbenzin.cz/
50.5952442,15.0757431,MT Oil,"MT Oil, s.r.o.",,,38.89,,41.88,,24.68,17-06-2026,https://www.mbenzin.cz/
49.8475624,15.8085994,"Eurobit, Nasavrky",EUROBIT - čerpací stanice s.r.o.,05:00-22:00,,39.14,,41.23,,23.72,17-06-2026,https://www.mbenzin.cz/
49.6186138,18.7344429,Prim Hrádek,PETRA s.r.o.,24/7,,39.58,,41.45,,24.06,17-06-2026,https://www.mbenzin.cz/
49.8763487,16.8854402,Orlen,,05:00-22:00,,39.52,,40.76,,23.99,17-06-2026,https://www.mbenzin.cz/
50.0817007,16.7613043,Benzina - Králíky,"Unipetrol RPA, s.r.o. – Benzina",05:00-22:00,,39.71,,41.81,,24.16,17-06-2026,https://www.mbenzin.cz/
49.8713868,16.8903024,MOL,,24/7,,40.74,,41.64,,24.32,17-06-2026,https://www.mbenzin.cz/
50.1727719,14.4841701,"Eurobit, Bořanovice",EUROBIT - čerpací stanice s.r.o.,05:00-22:00,,38.88,,41.19,,24.3,17-06-2026,https://www.mbenzin.cz/
50.2007138,14.546149,Herst,,,,39.44,,41.33,,24.54,17-06-2026,https://www.mbenzin.cz/
49.9064323,16.6000625,Agrochem Lanškroun,AGROCHEM a.s.,Mo-Fr 05:30-21:00; Sa 07:00-19:00; Su 08:00-19:00,,39.63,,40.9,,24.7,17-06-2026,https://www.mbenzin.cz/
49.9200481,16.6223681,Avia Lanškroun,DOTA,05:00-23:00,,38.47,,41.28,,24.39,17-06-2026,https://www.mbenzin.cz/
49.0370926,17.5562108,"První Autosprint s.r.o., Veletiny",,,,39.34,,40.53,,23.96,17-06-2026,https://www.mbenzin.cz/
49.017647,14.7553528,MOL,MOL Česká republika,Mo-Su 06:00-21:00,,39.81,,41.95,,24.26,17-06-2026,https://www.mbenzin.cz/
49.1968759,14.7163293,EuroOil Veselí nad Lužnicí,"Čepro, a.s.",Mo-Su 06:00-19:00,,39.44,,40.92,,24.32,17-06-2026,https://www.mbenzin.cz/
49.4179945,12.7145244,Free1 GAS Lísková 2,TOP TANK s.r.o.,off,,39.33,,41.59,,24.7,17-06-2026,https://www.mbenzin.cz/
49.9326411,14.1868705,MOL,"MOL Česká republika, s.r.o.",Mo-Fr 06:00-20:00; Sa-Su 07:00-20:00,,39.64,,42.63,,24.58,17-06-2026,https://www.mbenzin.cz/
49.764833,18.2726728,Orlen,"Orlen Unipetrol RPA s.r.o. - Benzina, odštěpný závod",Mo-Su 05:00-22:00,,39.4,,40.71,,24.66,17-06-2026,https://www.mbenzin.cz/
49.6254893,16.3468502,EuroOil,"Čepro, a.s.",Mo-Su 06:00-20:00,,39.21,,41.31,,24.34,17-06-2026,https://www.mbenzin.cz/
49.6063857,13.8737747,MOL,"MOL Česká republika, s.r.o.",Mo-Su 06:00-22:00,,39.8,,42.66,,24.55,17-06-2026,https://www.mbenzin.cz/
49.5561946,17.7281624,"MOL, Hranice na Moravě","MOL Česká republika, s.r.o.",05:00-22:00,,40.16,,42.7,,24.35,17-06-2026,https://www.mbenzin.cz/
49.0123581,14.5941279,,"Čepro, a.s.",Mar-Oct 06:00-22:00;Nov-Feb 06:00-21:00,,38.85,,41.6,,24.19,17-06-2026,https://www.mbenzin.cz/
49.4664136,17.9832248,Vena-Trade Valašské Meziříčí,"VENA-TRADE, s.r.o.",,,39.78,,41.85,,24.6,17-06-2026,https://www.mbenzin.cz/
49.870333,16.8926556,,,,,39.36,,41.58,,23.96,17-06-2026,https://www.mbenzin.cz/
50.5878039,15.1480727,RoBiN OIL Turnov,RoBiN OIL s.r.o.,24/7,,39.97,,41.84,,24.44,17-06-2026,https://www.mbenzin.cz/
50.4249544,14.9031131,"Kontakt, Mladá Boleslav","Kontakt - služby motoristům, spol. s r.o.","Mo-Fr 06:00-20:00; Su,Sa 06:30-20:00",,39.4,,41.03,,24.55,17-06-2026,https://www.mbenzin.cz/
48.8968818,14.8810827,Orlen,"Orlen Unipetrol RPA s.r.o. - Benzina, odštěpný závod",Mo-Su 05:00-22:00,,39.39,,41.58,,24.26,17-06-2026,https://www.mbenzin.cz/
50.5768362,15.8950231,MOL,"MOL Česká republika, s.r.o.",05:00-22:00,,40.65,,42.43,,24.22,17-06-2026,https://www.mbenzin.cz/
50.0244078,14.0987746,,,,,39.3,,41.86,,24.16,17-06-2026,https://www.mbenzin.cz/
49.4172695,17.9564394,"Limitoo, Bystřička 2",Limitoo s.r.o.,"Mo-Fr 05:00-20:00; Sa,Su 06:00-20:00",,39.51,,40.89,,24.2,17-06-2026,https://www.mbenzin.cz/
49.3420173,16.4179368,Benzina,,24/7,,39.69,,41.4,,24.57,17-06-2026,https://www.mbenzin.cz/
50.9931938,14.327617,RoBiN OIL Vilémov,RoBiN OIL s.r.o.,24/7,,39.61,,41.07,,24.59,17-06-2026,https://www.mbenzin.cz/
50.7255454,15.2337255,Acter Smržovka,ACTER s.r.o.,"Mo-Fr 06:00-20:00; Sa,Su 08:00-20:00",,39.05,,41.57,,24.54,17-06-2026,https://www.mbenzin.cz/
50.4845714,14.0247148,Autodoprava Řehák,Autodoprava Řehák s.r.o.,"Mo-Fr 07:00-19:00; Sa,Su 08:00-16:00",,39.02,,41.16,,24.08,17-06-2026,https://www.mbenzin.cz/
50.530473,15.7434798,"KM-Prona, Hostinné","KM - PRONA, a.s.",05:30-22:00,,39.12,,40.21,,24.02,17-06-2026,https://www.mbenzin.cz/
50.3842052,13.7873554,"Majority Petrol, s.r.o.",,,,39.34,,40.79,,24.61,17-06-2026,https://www.mbenzin.cz/
49.3076764,14.0934815,,,,,39.32,,41.68,,24.5,17-06-2026,https://www.mbenzin.cz/
49.0502848,17.4659878,MOL,MOL Česká republika,24/7,,39.99,,42.04,,24.72,17-06-2026,https://www.mbenzin.cz/
49.0156455,14.4925569,Makro - čerpací stanice,,"Mo-Sa 6:00-22:00, Su 7:00 - 22:00",,39.42,,41.27,,23.96,17-06-2026,https://www.mbenzin.cz/
49.0071343,17.1307274,EuroOil,"Čepro, a.s.",Mo-Su 06:00-20:00,,39.63,,41.04,,24.3,17-06-2026,https://www.mbenzin.cz/
49.9972151,16.2279809,,Agro Choceň a.s.,,,39.59,,40.78,,24.56,17-06-2026,https://www.mbenzin.cz/
49.95205,14.047437,OMV,OMV Česká republika,24/7,,40.13,,42.03,,24.85,17-06-2026,https://www.mbenzin.cz/
49.9530951,14.0489374,Orlen,,Mo-Su 06:00-21:00,,39.16,,41.64,,24.58,17-06-2026,https://www.mbenzin.cz/
48.6539939,14.3698896,Robin Oil,Čepro,24/7,,38.83,,41.7,,24.43,17-06-2026,https://www.mbenzin.cz/
49.7840852,17.1230027,Vena-Trade Uničov,"VENA-TRADE, s.r.o.","Mo-Fr 06:00-20:00; Sa,Su 07:00-20:00",,38.97,,41.72,,24.26,17-06-2026,https://www.mbenzin.cz/
49.750489,13.4041597,Orlen,Orlen Unipetrol RPA,Mo-Su 05:00-24:00,,39.88,,40.53,,23.97,17-06-2026,https://www.mbenzin.cz/
49.7466514,13.4281076,Tomegas,,,,39.82,,40.74,,24.07,17-06-2026,https://www.mbenzin.cz/
48.9306197,15.8561163,,,,,39.55,,41.8,,24.65,17-06-2026,https://www.mbenzin.cz/
50.2233938,14.8776146,MOL Milovice,"MOL Česká republika, s.r.o.",06:00-20:00,,39.88,,42.19,,24.7,17-06-2026,https://www.mbenzin.cz/
50.2007739,14.5116037,Zerogas,,"Mo-Fr 06:00-20:00; Sa, Su 07:00-20:00",,39.78,,41.34,,24.38,17-06-2026,https://www.mbenzin.cz/
50.7358697,15.1598278,MOL Jablonec n. Nisou - Želivského,"MOL Česká republika, s.r.o.",06:00-21:00,,39.66,,41.4,,24.86,17-06-2026,https://www.mbenzin.cz/
49.0500334,17.4652453,EuroOil,,,,39.24,,41.48,,23.93,17-06-2026,https://www.mbenzin.cz/
50.3097224,14.3128307,Orlen,,,,39.14,,40.54,,24.56,17-06-2026,https://www.mbenzin.cz/
50.031868,14.4249346,"EuroOil Praha 4, Vrbova","Čepro, a.s.",Mo-Su 05:00-22:00,,39.53,,41.32,,24.16,17-06-2026,https://www.mbenzin.cz/
50.1775229,14.6719824,Karoil,,,,39.63,,41.51,,24.48,17-06-2026,https://www.mbenzin.cz/
50.1434195,14.1127971,"MOL, Kladno - Kročehlavská","MOL Česká republika, s.r.o.",05:00-22:00,,40.26,,42.13,,24.28,17-06-2026,https://www.mbenzin.cz/
49.2231596,16.5372722,Orlen,,24/7,,39.4,,40.56,,24.24,17-06-2026,https://www.mbenzin.cz/
50.2706726,13.9900288,"ČEPRO, a.s.",,,,39.17,,41.6,,24.23,17-06-2026,https://www.mbenzin.cz/
50.1090207,14.5430129,Orlen,,24/7,,39.86,,41.82,,24.52,17-06-2026,https://www.mbenzin.cz/
48.8846194,13.7041657,Travel Oil,,,,39.56,,41.0,,23.98,17-06-2026,https://www.mbenzin.cz/
50.7753879,15.0618021,EuroOil Liberec,"Čepro, a.s.",Mo-Su 05:00-22:00,,39.56,,41.03,,24.25,17-06-2026,https://www.mbenzin.cz/
49.2634973,13.8895881,Benzina Katovická,,5:00-22:00,,38.8,,41.05,,24.08,17-06-2026,https://www.mbenzin.cz/
49.2694987,13.9217967,čerpací stanice LPG,"AUTOGAS - CENTRUM, spol. s r.o.",,,38.96,,41.33,,24.49,17-06-2026,https://www.mbenzin.cz/
49.4517283,17.9755751,,,,,39.4,,41.85,,24.15,17-06-2026,https://www.mbenzin.cz/
49.0873374,17.8578529,EuroOil Slavičín,"Čepro, a.s.",Mo-Su 06:00-21:00,,39.39,,41.27,,24.24,17-06-2026,https://www.mbenzin.cz/
50.5648284,15.9229727,Orlen,,24/7,,39.37,,41.78,,23.99,17-06-2026,https://www.mbenzin.cz/
49.2536404,13.9135991,ZZN,,,,39.13,,40.52,,24.37,17-06-2026,https://www.mbenzin.cz/
48.9018134,13.7196841,MOL,"MOL Česká republika, s.r.o.",24/7,,40.56,,41.46,,24.45,17-06-2026,https://www.mbenzin.cz/
49.1530894,16.8871081,EuroOil,"Čepro, a.s.",Mo-Su 06:00-20:00,,39.34,,41.82,,24.43,17-06-2026,https://www.mbenzin.cz/
50.0432657,14.4700067,,,,,39.99,,41.39,,24.44,17-06-2026,https://www.mbenzin.cz/
50.072189,14.524786,,,,,38.95,,41.83,,24.17,17-06-2026,https://www.mbenzin.cz/
49.3704187,14.3731159,,,,,39.66,,41.76,,24.16,17-06-2026,https://www.mbenzin.cz/
48.9126363,13.7639374,ONO,Tank ONO s.r.o.,24/7,,36.39,,38.78,,23.19,17-06-2026,https://www.mbenzin.cz/
49.8878956,15.4749028,EuroOil,,Mo-Fr 06:00-18:00; Sa-Su 07:00-17:00,,39.81,,41.33,,24.17,17-06-2026,https://www.mbenzin.cz/
50.2916904,14.093505,"MOL, Zlonice","MOL Česká republika, s.r.o.",Mo-Su 06:30-19:00,,40.62,,42.7,,24.32,17-06-2026,https://www.mbenzin.cz/
50.2272271,14.0985005,"MOL, Slaný Pražská","MOL Česká republika, s.r.o.",Mo-Su 05:00-22:00,,40.55,,41.67,,24.21,17-06-2026,https://www.mbenzin.cz/
50.2280721,14.0889081,MOL,MOL Česká republika,Mo-Su 05:00-22:00,,40.76,,41.77,,24.89,17-06-2026,https://www.mbenzin.cz/
50.1675565,14.201903,AV Tank,,,,39.53,,40.7,,24.47,17-06-2026,https://www.mbenzin.cz/
49.9274107,14.2708211,Plyn Bouda,,24/7,,39.9,,41.9,,24.52,17-06-2026,https://www.mbenzin.cz/
49.9265602,14.2691087,ORLEN,,Mo-Su 05:00-23:00,,39.16,,41.23,,24.36,17-06-2026,https://www.mbenzin.cz/
49.9353475,14.2831936,Avia,AVIA Česká republika,Mo-Fr 07:00-20:00; Sa-Su 08:00-20:00,,38.93,,40.12,,23.67,17-06-2026,https://www.mbenzin.cz/
50.659047,14.0556563,"MOL, Ústí nad Labem, Děčínská","MOL Česká republika, s.r.o.",24/7,,40.06,,41.46,,24.53,17-06-2026,https://www.mbenzin.cz/
49.4753435,17.1310505,"Benzina - Přerov, Vrahovická","Unipetrol RPA, s.r.o. – Benzina",05:00-22:00,,39.91,,40.56,,24.68,17-06-2026,https://www.mbenzin.cz/
49.9532326,15.7824875,"Eurobit, Chrudim 2",EUROBIT - čerpací stanice s.r.o.,05:00-22:00,,38.41,,40.75,,24.13,17-06-2026,https://www.mbenzin.cz/
49.4727793,17.0634771,EuroOil Prostějov,"Čepro, a.s.",Mo-Su 06:00-20:00,,39.72,,41.53,,24.67,17-06-2026,https://www.mbenzin.cz/
49.462462,17.140424,MOL Prostějov,"MOL Česká republika, s.r.o.",05:00-20:00,,40.25,,41.67,,24.55,17-06-2026,https://www.mbenzin.cz/
49.9258564,15.4591,"KM-Prona, Vrdy - Dolní Bučice","KM - PRONA, a.s.",05:00-22:00,,39.17,,41.06,,23.99,17-06-2026,https://www.mbenzin.cz/
49.9130096,15.4006799,Čerpací stanice BENZ,,,,39.96,,41.43,,24.46,17-06-2026,https://www.mbenzin.cz/
49.9013107,15.4032228,Orlen,,Mo-Su 06:00-20:00,,39.8,,41.34,,24.58,17-06-2026,https://www.mbenzin.cz/
49.218642,16.4126161,67,,,,39.94,,40.56,,24.6,17-06-2026,https://www.mbenzin.cz/
49.1878767,16.6228929,Orlen,"Orlen Unipetrol RPA s.r.o. - Benzina, odštěpný závod",24/7,,39.16,,41.5,,23.94,17-06-2026,https://www.mbenzin.cz/
49.7769272,13.3544575,Prim Plzeň,PETRA s.r.o.,06:00-22:00,,39.84,,40.8,,24.01,17-06-2026,https://www.mbenzin.cz/
49.4371704,17.2834358,EuroOil Tovačov,"Čepro, a.s.",Mo-Su 06:00-21:00,,39.69,,40.94,,24.13,17-06-2026,https://www.mbenzin.cz/
50.46678,16.1297252,,,,,39.1,,41.42,,24.07,17-06-2026,https://www.mbenzin.cz/
49.9540922,16.1425357,,,,,39.99,,40.84,,24.15,17-06-2026,https://www.mbenzin.cz/
49.324253,17.1745555,Vena-Trade Nezamyslice,"VENA-TRADE, s.r.o.",,,39.19,,41.48,,24.48,17-06-2026,https://www.mbenzin.cz/
50.2219756,15.7883949,,,,,38.89,,41.05,,24.31,17-06-2026,https://www.mbenzin.cz/
50.918168,14.6064036,Koloc Oil,KOLOC oil,,,39.88,,41.45,,23.94,17-06-2026,https://www.mbenzin.cz/
49.3931943,13.4644677,G.A.S. Petroleum,G.A.S. Petroleum Group,Mo-Su 05:30-22:00,,39.83,,41.0,,24.25,17-06-2026,https://www.mbenzin.cz/
50.1815342,13.7994035,MOL,"MOL Česká republika, s.r.o.",,,40.7,,42.27,,24.47,17-06-2026,https://www.mbenzin.cz/
50.0612902,14.6666997,,Warman s.r.o.,06:00-21:00,,39.12,,41.61,,24.28,17-06-2026,https://www.mbenzin.cz/
49.2432116,16.6615574,Fors CS,,"Mo-Fr 06:00-22:00, Sa-Su 07:00-21:00",,39.57,,41.86,,23.95,17-06-2026,https://www.mbenzin.cz/
49.7846283,18.2216786,MOL,"MOL Česká republika, s.r.o.",05:00-22:00,,40.75,,42.56,,24.23,17-06-2026,https://www.mbenzin.cz/
49.8010569,18.234015,ArmEx Ostrava,ARMEX Oil s.r.o.,24/7,,39.0,,40.61,,24.16,17-06-2026,https://www.mbenzin.cz/
49.4739041,17.1243157,Prim,PETRA s.r.o.,06:00-22:00,,38.99,,41.79,,24.48,17-06-2026,https://www.mbenzin.cz/
49.8310835,18.3929923,Orlen,"Orlen Unipetrol RPA s.r.o. - Benzina, odštěpný závod",Mo-Su 06:00-22:00,,39.11,,41.78,,24.29,17-06-2026,https://www.mbenzin.cz/
50.6201654,15.5986836,Benzina Vrchlabí,"Unipetrol RPA, s.r.o. – Benzina",24/7,,38.91,,40.62,,24.32,17-06-2026,https://www.mbenzin.cz/
50.611244,13.7381896,PASOIL,,,,39.59,,40.92,,23.91,17-06-2026,https://www.mbenzin.cz/
50.6110044,13.7507809,EuroOil Duchcov,"Čepro, a.s.",Mo-Su 05:00-22:00,,38.84,,41.27,,24.49,17-06-2026,https://www.mbenzin.cz/
50.2088511,14.0848608,"Shell Czech Republic, a.s.",,,,40.3,,42.54,,24.56,17-06-2026,https://www.mbenzin.cz/
49.9749037,14.1007799,"EuroOil Beroun, U Veterinárky","Čepro, a.s.",Mo-Su 05:00-22:00,,39.55,,40.79,,24.16,17-06-2026,https://www.mbenzin.cz/
49.7119681,17.8922162,Orlen,,05:00-22:00,,39.05,,40.65,,24.02,17-06-2026,https://www.mbenzin.cz/
48.8516264,17.1211155,OMV,OMV Česká republika,24/7,,40.67,,43.37,,24.65,17-06-2026,https://www.mbenzin.cz/
50.4327384,14.9255937,Orlen,"Orlen Unipetrol RPA s.r.o. - Benzina, odštěpný závod",Mo-Su 05:00-23:00,,39.93,,41.08,,24.42,17-06-2026,https://www.mbenzin.cz/
48.7965617,16.9631069,Eurobit,EUROBIT - čerpací stanice s.r.o.,24/7,,38.63,,40.75,,23.84,17-06-2026,https://www.mbenzin.cz/
50.3431223,14.9198562,Pavel Langr - čerpací stanice,,Mo-Sa 06:00-20:00,,39.73,,40.67,,24.08,17-06-2026,https://www.mbenzin.cz/
49.8648196,18.549274,"Baltic Oil, Karviná - Hranice",BALTIC OIL s.r.o.,"Mo-Fr 05:00-21:00; Sa,Su 06:00-21:00",,38.87,,41.12,,24.66,17-06-2026,https://www.mbenzin.cz/
51.0026778,14.4641271,Orlen,"Orlen Unipetrol RPA s.r.o. - Benzina, odštěpný závod",Mo-Su 05:00-22:00,,39.67,,41.11,,24.3,17-06-2026,https://www.mbenzin.cz/
49.3153517,14.1635807,OMV,OMV,24/7,,40.84,,42.84,,24.57,17-06-2026,https://www.mbenzin.cz/
49.3153945,14.1642094,Robin Oil,Čepro,24/7,,38.8,,41.43,,24.65,17-06-2026,https://www.mbenzin.cz/
